{"Broadband Internet Service Providers": [{"latlon": "12.985042000000,77.560128000000", "docId": "080PXX80.XX80.130730162759.Z3J4", "name": "Galaxy Broadband Services Pvt Ltd", "category": "Broadband Internet Service Providers"}, {"latlon": "12.990721400000,77.554469000000", "docId": "080PXX80.XX80.110311105948.N6S5", "name": "Act Broadband", "category": "Broadband Internet Service Providers"}, {"latlon": "13.001444000000,77.598463000000", "docId": "080PXX80.XX80.110617135117.J6H6", "name": "Radix Solutions", "category": "Broadband Internet Service Providers"}, {"latlon": "12.996989000000,77.603427000000", "docId": "080PXX80.XX80.140724180554.A8C3", "name": "Blue 9 Airtel", "category": "Broadband Internet Service Providers"}, {"latlon": "13.022339805556,77.557968138889", "docId": "080PXX80.XX80.100828115111.K1M4", "name": "Star Network", "category": "Broadband Internet Service Providers"}, {"latlon": "12.930493000000,77.556131000000", "docId": "080PXX80.XX80.120502142910.B5G2", "name": "Ramya Enterprises", "category": "Broadband Internet Service Providers"}, {"latlon": "12.932689000000,77.542436000000", "docId": "080PXX80.XX80.140325120912.R7K8", "name": "Gopala S", "category": "Broadband Internet Service Providers"}, {"latlon": "13.030095000000,77.574472000000", "docId": "080PXX80.XX80.120808144110.L2K2", "name": "Horizon Enterprises", "category": "Broadband Internet Service Providers"}, {"latlon": "13.027816000000,77.567938000000", "docId": "080PXX80.XX80.140530175447.F4V8", "name": "Spark Communications", "category": "Broadband Internet Service Providers"}, {"latlon": "12.932689000000,77.542436000000", "docId": "080PXX80.XX80.130222114252.A9N3", "name": "Monish Broadband Internet Services", "category": "Broadband Internet Service Providers"}, {"latlon": "12.941974000000,77.618662000000", "docId": "080PXX80.XX80.130625112756.B7M2", "name": "Bharti Internet", "category": "Broadband Internet Service Providers"}, {"latlon": "12.953790000000,77.621405000000", "docId": "080PXX80.XX80.140726130743.F8P1", "name": "Sri Manjunatha Communications", "category": "Broadband Internet Service Providers"}, {"latlon": "13.039500000000,77.573667000000", "docId": "080P1230275669S9A6R5", "name": "RMV IT.COM", "category": "Broadband Internet Service Providers"}, {"latlon": "12.970233000000,77.632042000000", "docId": "080PXX80.XX80.101207141503.S2J6", "name": "Cell Net Solution", "category": "Broadband Internet Service Providers"}, {"latlon": "12.918831000000,77.600394000000", "docId": "080P6003111", "name": "Bharti Airtel Ltd", "category": "Broadband Internet Service Providers"}, {"latlon": "13.037297000000,77.598342000000", "docId": "080PXX80.XX80.140715084527.A3U1", "name": "Skanda Enterprises", "category": "Broadband Internet Service Providers"}, {"latlon": "12.981500000000,77.639167000000", "docId": "080PXX80.XX80.140610174235.C9Z1", "name": "Tele Tech Internet Services", "category": "Broadband Internet Service Providers"}, {"latlon": "12.916838000000,77.605475000000", "docId": "080PXX80.XX80.120711130347.E3A2", "name": "Green City Network", "category": "Broadband Internet Service Providers"}, {"latlon": "12.914333000000,77.587833000000", "docId": "080PXX80.XX80.140616134624.V7U4", "name": "G Broadband", "category": "Broadband Internet Service Providers"}, {"latlon": "12.914138000000,77.613515000000", "docId": "080PXX80.XX80.140716142606.B2L9", "name": "Mahesh Enterprises", "category": "Broadband Internet Service Providers"}, {"latlon": "12.892487000000,77.581855000000", "docId": "080PXX80.XX80.130515171249.P5H3", "name": "Raj Telelinks", "category": "Broadband Internet Service Providers"}, {"latlon": "13.024607000000,77.640871000000", "docId": "080PXX80.XX80.140617172256.X3J6", "name": "Shreyas Enterprises", "category": "Broadband Internet Service Providers"}, {"latlon": "12.991800000000,77.667878000000", "docId": "080PXX80.XX80.140803140737.S5W3", "name": "Radix Tele Solutions", "category": "Broadband Internet Service Providers"}, {"latlon": "12.908993000000,77.640588000000", "docId": "080PXX80.XX80.140219134922.Z7W3", "name": "Sri Venkateshwara Enterprises", "category": "Broadband Internet Service Providers"}, {"latlon": "13.071272000000,77.567780000000", "docId": "080PXX80.XX80.140723120418.S2G5", "name": "Sri Sai Net", "category": "Broadband Internet Service Providers"}, {"latlon": "13.023797000000,77.648797000000", "docId": "080PXX80.XX80.140116165625.C1P6", "name": "Tele Tech Services", "category": "Broadband Internet Service Providers"}, {"latlon": "12.910749800000,77.641153300000", "docId": "080PXX80.XX80.110418153552.I6P7", "name": "Ace Communications", "category": "Broadband Internet Service Providers"}, {"latlon": "12.918569000000,77.649841000000", "docId": "080PXX80.XX80.120124165521.P5N5", "name": "Ttn Broadband", "category": "Broadband Internet Service Providers"}, {"latlon": "12.881251000000,77.602338000000", "docId": "080PXX80.XX80.140106113557.A9K9", "name": "Gouse Patel", "category": "Broadband Internet Service Providers"}, {"latlon": "12.866568000000,77.591961000000", "docId": "080PXX80.XX80.140313150813.V4Y2", "name": "Chamundeshwari Communications", "category": "Broadband Internet Service Providers"}, {"latlon": "13.022603000000,77.696708000000", "docId": "080PXX80.XX80.130911134818.Q8N1", "name": "Suresh", "category": "Broadband Internet Service Providers"}, {"latlon": "13.010579000000,77.696403000000", "docId": "080PXX80.XX80.111013121635.S8T7", "name": "Nayana Enterprises", "category": "Broadband Internet Service Providers"}, {"latlon": "12.949003000000,77.702950000000", "docId": "080PXX80.XX80.120601121631.R1P4", "name": "Praveen Enterprises", "category": "Broadband Internet Service Providers"}, {"latlon": "12.848143000000,77.664045000000", "docId": "080PXX80.XX80.131125093123.G8Q4", "name": "R K Networks", "category": "Broadband Internet Service Providers"}, {"latlon": "12.848143000000,77.664045000000", "docId": "080PXX80.XX80.130710130835.G8M3", "name": "Tele Tech Services 4g", "category": "Broadband Internet Service Providers"}, {"latlon": "12.983383000000,77.767845000000", "docId": "080PXX80.XX80.140902163410.R7K6", "name": "S M Enterprises", "category": "Broadband Internet Service Providers"}, {"latlon": "12.766400000000,77.744607000000", "docId": "080PXX80.XX80.130724144908.C3B5", "name": "Akshay Communications", "category": "Broadband Internet Service Providers"}, {"latlon": "12.977272000000,77.568163000000", "docId": "080PXX80.XX80.130814111619.R3U8", "name": "VIGNESHWARA ENTERPRAISES", "category": "Broadband Internet Service Providers"}, {"latlon": "12.973806000000,77.549850000000", "docId": "080PXX80.XX80.130612165426.W9I7", "name": "Thirumala Cable Network", "category": "Broadband Internet Service Providers"}, {"latlon": "12.973806000000,77.549850000000", "docId": "080PXX80.XX80.110103163413.A9X3", "name": "Chaitanya Communications", "category": "Broadband Internet Service Providers"}, {"latlon": "12.975667000000,77.558667000000", "docId": "080PXX80.XX80.130813122105.X7Y8", "name": "Veena cable network", "category": "Broadband Internet Service Providers"}, {"latlon": "13.003938800000,77.571057400000", "docId": "080P5993823", "name": "Atria Convergence Technologies Pvt Ltd", "category": "Broadband Internet Service Providers"}, {"latlon": "13.002000000000,77.572333000000", "docId": "080PXX80.XX80.100308155441.I5T6", "name": "Mak Inc", "category": "Broadband Internet Service Providers"}, {"latlon": "12.974500000000,77.542167000000", "docId": "080PXX80.XX80.130910112529.M9D4", "name": "MTS Store", "category": "Broadband Internet Service Providers"}, {"latlon": "12.990346000000,77.589142000000", "docId": "080PK022960", "name": "Reliance World", "category": "Broadband Internet Service Providers"}, {"latlon": "12.997716000000,77.583529000000", "docId": "080P1216984918V8Y2Q5", "name": "Reliance Communication", "category": "Broadband Internet Service Providers"}, {"latlon": "12.984112100000,77.579938700000", "docId": "080P5608226", "name": "Atria Convergence Technologies Pvt Ltd", "category": "Broadband Internet Service Providers"}, {"latlon": "12.983095900000,77.559617900000", "docId": "080PXX80.XX80.120705134234.D6D4", "name": "ACT TV", "category": "Broadband Internet Service Providers"}, {"latlon": "12.981318200000,77.595132000000", "docId": "080PXX80.XX80.140508001631.V5G1", "name": "You Broadband", "category": "Broadband Internet Service Providers"}, {"latlon": "12.990721400000,77.554469000000", "docId": "080PXX80.XX80.140506122940.M8Y1", "name": "Atria Convergence Technologies Pvt Ltd", "category": "Broadband Internet Service Providers"}, {"latlon": "12.981318200000,77.595132000000", "docId": "080PXX80.XX80.140723214440.Q7E1", "name": "Gurukrupa Cable Network", "category": "Broadband Internet Service Providers"}, {"latlon": "12.969186000000,77.567382000000", "docId": "080PXX80.XX80.100823121443.F4H7", "name": "Online Communication", "category": "Broadband Internet Service Providers"}, {"latlon": "12.986783000000,77.579913000000", "docId": "080PYE01020", "name": "Megha Communications", "category": "Broadband Internet Service Providers"}, {"latlon": "12.955288185250,77.567265420972", "docId": "080PXX80.XX80.120706182032.R6D7", "name": "Vinod B", "category": "Broadband Internet Service Providers"}, {"latlon": "12.986208000000,77.580098000000", "docId": "080PXX80.XX80.100308161359.L3S6", "name": "Byramudi Communication", "category": "Broadband Internet Service Providers"}, {"latlon": "12.955847200000,77.565882700000", "docId": "080PXX80.XX80.140123100516.B7L8", "name": "Ecommerce Web Developers", "category": "Broadband Internet Service Providers"}, {"latlon": "12.969833000000,77.546000000000", "docId": "080PXX80.XX80.121221123316.G7Q1", "name": "KMG Trading & Services Pvt Ltd", "category": "Broadband Internet Service Providers"}, {"latlon": "12.971606000000,77.594376000000", "docId": "080PXX80.XX80.100119155538.I4P8", "name": "Lingal Enterprises", "category": "Broadband Internet Service Providers"}, {"latlon": "12.966245200000,77.588561000000", "docId": "080P4002456", "name": "Arun Telecom", "category": "Broadband Internet Service Providers"}, {"latlon": "12.952012000000,77.577272000000", "docId": "080P4309442", "name": "Chaitanya I Net Solutions", "category": "Broadband Internet Service Providers"}, {"latlon": "12.972333000000,77.574500000000", "docId": "080PS001721", "name": "Phono & General Agency", "category": "Broadband Internet Service Providers"}, {"latlon": "12.958137000000,77.564354000000", "docId": "080PXX80.XX80.130429143039.E8S8", "name": "World Phone Internet Services Pvt Ltd", "category": "Broadband Internet Service Providers"}, {"latlon": "12.956921000000,77.550424000000", "docId": "080PXX80.XX80.090831150704.I3P4", "name": "Avalahalli Cable TV Network", "category": "Broadband Internet Service Providers"}, {"latlon": "12.997833800000,77.552771200000", "docId": "080PXX80.XX80.120702234904.Q4F7", "name": "Nagaraja Hegde", "category": "Broadband Internet Service Providers"}, {"latlon": "12.952012000000,77.577272000000", "docId": "080PXX80.XX80.100107171111.E2V3", "name": "Sri SAI Tele Services", "category": "Broadband Internet Service Providers"}, {"latlon": "12.965959000000,77.591886000000", "docId": "080PXX80.XX80.100323140929.P5H4", "name": "V R Enterprises", "category": "Broadband Internet Service Providers"}, {"latlon": "12.981033000000,77.559117000000", "docId": "080PXX80.XX80.100306141723.H6M5", "name": "Best Teleservices", "category": "Broadband Internet Service Providers"}, {"latlon": "12.955847200000,77.565882700000", "docId": "080PXX80.XX80.110103140552.R2M2", "name": "Saraswationline.Com", "category": "Broadband Internet Service Providers"}, {"latlon": "12.985840000000,77.592937000000", "docId": "080PXX80.XX80.100304170352.K5R3", "name": "S Cube Associates", "category": "Broadband Internet Service Providers"}, {"latlon": "12.974093900000,77.553091000000", "docId": "080PXX80.XX80.100413185615.N1A4", "name": "Maruthi Enterprises", "category": "Broadband Internet Service Providers"}, {"latlon": "12.977730000000,77.574738000000", "docId": "080PXX80.XX80.140505121956.B4U9", "name": "E city Internet cafe", "category": "Broadband Internet Service Providers"}, {"latlon": "12.981274000000,77.559834000000", "docId": "080PXX80.XX80.100118125109.W5A5", "name": "Best Teleservices", "category": "Broadband Internet Service Providers"}, {"latlon": "12.979771720000,77.557755740000", "docId": "080PXX80.XX80.090910111140.L3F7", "name": "Best Tele Services", "category": "Broadband Internet Service Providers"}, {"latlon": "12.968401000000,77.578839000000", "docId": "080PXX80.XX80.140120094804.K1N8", "name": "Shiva SAI Telenet", "category": "Broadband Internet Service Providers"}, {"latlon": "12.969083000000,77.581400000000", "docId": "080PXX80.XX80.130822132945.P1Y4", "name": "N B Creation", "category": "Broadband Internet Service Providers"}, {"latlon": "12.987000000000,77.555333000000", "docId": "080PXX80.XX80.131029163855.Z3U8", "name": "Game inn Internet cafe", "category": "Broadband Internet Service Providers"}, {"latlon": "12.990721400000,77.554469000000", "docId": "080PXX80.XX80.130905105840.B4U8", "name": "Narendra freelancer", "category": "Broadband Internet Service Providers"}, {"latlon": "12.990721400000,77.554469000000", "docId": "080PXX80.XX80.140120094432.D7Y9", "name": "Lakshmi Enterprises", "category": "Broadband Internet Service Providers"}, {"latlon": "12.984737000000,77.586962000000", "docId": "080P5997016", "name": "ICE Network", "category": "Broadband Internet Service Providers"}, {"latlon": "12.981318200000,77.595132000000", "docId": "080PXX80.XX80.140612172049.S2S4", "name": "Secure Network Solutions India Pvt Ltd", "category": "Broadband Internet Service Providers"}, {"latlon": "12.981318200000,77.595132000000", "docId": "080PXX80.XX80.140715155422.V7U7", "name": "Cyber Gateway", "category": "Broadband Internet Service Providers"}, {"latlon": "12.952012000000,77.577272000000", "docId": "080PF015184", "name": "Sree Ganesh Enterprises", "category": "Broadband Internet Service Providers"}, {"latlon": "12.957460000000,77.545250000000", "docId": "080PMULTI45112", "name": "BSNL (Customer Service Centre)", "category": "Broadband Internet Service Providers"}, {"latlon": "12.964725000000,77.535338000000", "docId": "080PXX80.XX80.140702104526.R7N8", "name": "Metro Net", "category": "Broadband Internet Service Providers"}, {"latlon": "12.980999000000,77.602419000000", "docId": "080P4313440", "name": "YOU Broadband India Pvt Ltd", "category": "Broadband Internet Service Providers"}, {"latlon": "12.994682000000,77.594952000000", "docId": "080PXX80.XX80.100617113749.U4T8", "name": "Sify Technologies Ltd", "category": "Broadband Internet Service Providers"}, {"latlon": "12.942267000000,77.573215000000", "docId": "080PXX80.XX80.130808114605.R1L4", "name": "YOU BROADBAND AND CABLE INDIA LTD", "category": "Broadband Internet Service Providers"}, {"latlon": "12.942267000000,77.573215000000", "docId": "080PXX80.XX80.140324124621.S3U7", "name": "You Broadband India Pvt Ltd", "category": "Broadband Internet Service Providers"}, {"latlon": "13.003620000000,77.575530000000", "docId": "080P3024014", "name": "Anjali Cable TV & Internet Providers", "category": "Broadband Internet Service Providers"}, {"latlon": "12.987434000000,77.594748000000", "docId": "080PS001618", "name": "Hughes Communication India Ltd", "category": "Broadband Internet Service Providers"}, {"latlon": "13.008237000000,77.564721000000", "docId": "080P1230120262M6Z1C4", "name": "Finvest Ventures India", "category": "Broadband Internet Service Providers"}, {"latlon": "13.008141000000,77.564808000000", "docId": "080PXX80.XX80.100403144533.X7W3", "name": "Uday Sagar Financial Services", "category": "Broadband Internet Service Providers"}, {"latlon": "13.000766000000,77.553123000000", "docId": "080P5920057", "name": "I C E Network", "category": "Broadband Internet Service Providers"}, {"latlon": "12.958155000000,77.593007000000", "docId": "080PK002481", "name": "Pentagon Automation", "category": "Broadband Internet Service Providers"}, {"latlon": "12.945400000000,77.577599000000", "docId": "080PXX80.XX80.110718125204.R4Z3", "name": "Sri Sai Tele Services", "category": "Broadband Internet Service Providers"}, {"latlon": "12.973027000000,77.536685000000", "docId": "080PXX80.XX80.110116104701.U8R8", "name": "Maruthi Network", "category": "Broadband Internet Service Providers"}, {"latlon": "12.942267000000,77.573215000000", "docId": "080P1229874145B3E5J3", "name": "Wire & Wireless India Ltd", "category": "Broadband Internet Service Providers"}, {"latlon": "12.973027000000,77.536685000000", "docId": "080PXX80.XX80.110615185521.P7A7", "name": "Total Solutions", "category": "Broadband Internet Service Providers"}, {"latlon": "12.957030000000,77.598373000000", "docId": "080PXX80.XX80.110801150912.M4L2", "name": "Nest", "category": "Broadband Internet Service Providers"}, {"latlon": "12.985594000000,77.536922000000", "docId": "080PXX80.XX80.120207165352.Z9J2", "name": "Kumar", "category": "Broadband Internet Service Providers"}, {"latlon": "12.973027000000,77.536685000000", "docId": "080PXX80.XX80.120131151718.Q6D9", "name": "Vaagdev Communications", "category": "Broadband Internet Service Providers"}, {"latlon": "12.993236000000,77.543508000000", "docId": "080PK021291", "name": "Buyers Edge", "category": "Broadband Internet Service Providers"}, {"latlon": "12.992295000000,77.591638000000", "docId": "080PXX80.XX80.091105142041.D3E9", "name": "Sri Renuka Devi Enterprises", "category": "Broadband Internet Service Providers"}, {"latlon": "13.007095400000,77.571381000000", "docId": "080PXX80.XX80.110114112822.G6Q9", "name": "Sri Renuka Devi Enterprises", "category": "Broadband Internet Service Providers"}, {"latlon": "12.973027000000,77.536685000000", "docId": "080P5979511", "name": "N N S", "category": "Broadband Internet Service Providers"}, {"latlon": "12.973027000000,77.536685000000", "docId": "080PXX80.XX80.100309124223.P1M9", "name": "Maruthi Network", "category": "Broadband Internet Service Providers"}, {"latlon": "13.009053000000,77.554939000000", "docId": "080PXX80.XX80.120725105856.C5J9", "name": "Sri Lakshmi Venkateshwara Cable Video", "category": "Broadband Internet Service Providers"}, {"latlon": "12.965500000000,77.601637000000", "docId": "080PAPP2009013100798320218", "name": "SAS Technologies", "category": "Broadband Internet Service Providers"}, {"latlon": "12.965500000000,77.601637000000", "docId": "080P1228284603Z6L3V2", "name": "Thanishka Associates", "category": "Broadband Internet Service Providers"}, {"latlon": "12.993236000000,77.543508000000", "docId": "080P1231839018L3E8E1", "name": "Poornapragna Enterprises", "category": "Broadband Internet Service Providers"}, {"latlon": "12.958599000000,77.548106000000", "docId": "080PXX80.XX80.101208203237.J1T6", "name": "Shiv Technologies", "category": "Broadband Internet Service Providers"}, {"latlon": "12.957595000000,77.595012000000", "docId": "080PG007390", "name": "Chawlas", "category": "Broadband Internet Service Providers"}, {"latlon": "12.970058000000,77.534539000000", "docId": "080PXX80.XX80.130402110752.M5T1", "name": "Pankaja Enterprises", "category": "Broadband Internet Service Providers"}, {"latlon": "13.008237000000,77.564721000000", "docId": "080PXX80.XX80.100426110148.Y6E3", "name": "Klskladf", "category": "Broadband Internet Service Providers"}, {"latlon": "13.008237000000,77.564721000000", "docId": "080PXX80.XX80.131206071753.F8B4", "name": "Shushruth Communications", "category": "Broadband Internet Service Providers"}, {"latlon": "12.942079000000,77.572010000000", "docId": "080PYE01418", "name": "Pride Marketing", "category": "Broadband Internet Service Providers"}, {"latlon": "12.938427000000,77.581898000000", "docId": "080PXX80.XX80.110328114726.K4B9", "name": "YOU Broadband & Cable India Ltd", "category": "Broadband Internet Service Providers"}, {"latlon": "12.958167000000,77.528000000000", "docId": "080PXX80.XX80.130703171836.A2F9", "name": "Classic Info", "category": "Broadband Internet Service Providers"}, {"latlon": "12.972249900000,77.606580200000", "docId": "080PXX80.XX80.101122094607.M6H7", "name": "Sogo Computers", "category": "Broadband Internet Service Providers"}, {"latlon": "13.010728000000,77.546286000000", "docId": "080PXX80.XX80.090513183302.P2Z1", "name": "Varak Group", "category": "Broadband Internet Service Providers"}, {"latlon": "12.973331000000,77.609138000000", "docId": "080PXX80.XX80.100329124513.R6S9", "name": "Beyond Net", "category": "Broadband Internet Service Providers"}, {"latlon": "12.973713400000,77.612542200000", "docId": "080P5921079", "name": "Interact", "category": "Broadband Internet Service Providers"}, {"latlon": "12.944833000000,77.550500000000", "docId": "080PXX80.XX80.120621221235.E2F6", "name": "CVG Systems", "category": "Broadband Internet Service Providers"}, {"latlon": "12.937974000000,77.586353000000", "docId": "080P4213758", "name": "Nidhi Computer Systems", "category": "Broadband Internet Service Providers"}, {"latlon": "13.011164000000,77.546695000000", "docId": "080PXX80.XX80.100708164348.B2A6", "name": "Rekhi Communications", "category": "Broadband Internet Service Providers"}, {"latlon": "13.008028300000,77.595384100000", "docId": "080PXX80.XX80.130805135606.N6J2", "name": "Raju C", "category": "Broadband Internet Service Providers"}, {"latlon": "12.948854000000,77.598213000000", "docId": "080P1236674632M2E7Y1", "name": "Prajwal Enterprises", "category": "Broadband Internet Service Providers"}, {"latlon": "12.948854000000,77.598213000000", "docId": "080PCLR20090406IRO5711873572", "name": "Vana Durga Associates", "category": "Broadband Internet Service Providers"}, {"latlon": "12.983337700000,77.612901000000", "docId": "080P1229967486R4M4H4", "name": "Millions Compufax Services", "category": "Broadband Internet Service Providers"}, {"latlon": "12.983900000000,77.606906000000", "docId": "080P1229373916L5V6K3", "name": "M Z Enterprises", "category": "Broadband Internet Service Providers"}, {"latlon": "12.983900000000,77.606906000000", "docId": "080PXX80.XX80.100205181301.V7T2", "name": "Avalon", "category": "Broadband Internet Service Providers"}, {"latlon": "13.007610000000,77.594504000000", "docId": "080PXX80.XX80.090716103012.E1L6", "name": "Skanda Enterprises", "category": "Broadband Internet Service Providers"}, {"latlon": "12.941033000000,77.542870000000", "docId": "080PXX80.XX80.140120115427.U7K4", "name": "Madhava - Internet Service Provider", "category": "Broadband Internet Service Providers"}, {"latlon": "12.983337700000,77.612901000000", "docId": "080PDE00907", "name": "Millions Compufax Services", "category": "Broadband Internet Service Providers"}, {"latlon": "12.983337700000,77.612901000000", "docId": "080PDG01187", "name": "Millions Compufax Services", "category": "Broadband Internet Service Providers"}, {"latlon": "12.974264000000,77.620456000000", "docId": "080P5144753", "name": "Bsnl (Broadband Division)", "category": "Broadband Internet Service Providers"}, {"latlon": "12.974352700000,77.614696000000", "docId": "080PK009701", "name": "Reliance Infocomm Ltd (Head Office)", "category": "Broadband Internet Service Providers"}, {"latlon": "13.024210000000,77.594154000000", "docId": "080PXX80.XX80.121208183227.R2V7", "name": "Tata Solutions", "category": "Broadband Internet Service Providers"}, {"latlon": "12.997052000000,77.613469000000", "docId": "080PXX80.XX80.100301161930.C3X2", "name": "Hathway Broadband", "category": "Broadband Internet Service Providers"}, {"latlon": "13.022579000000,77.587073000000", "docId": "080PXX80.XX80.140617222302.V6C2", "name": "Bangalore Broadband Network Pvt Ltd", "category": "Broadband Internet Service Providers"}, {"latlon": "13.024210000000,77.594154000000", "docId": "080PXX80.XX80.130921170527.C5E9", "name": "Blue 9 Airtel", "category": "Broadband Internet Service Providers"}, {"latlon": "13.021544000000,77.592616000000", "docId": "080PK012694", "name": "Vishwa Vision Cable Tv Networks ( BBNL )", "category": "Broadband Internet Service Providers"}, {"latlon": "12.973885000000,77.615714000000", "docId": "080P4003099", "name": "Jsr Communication & Services", "category": "Broadband Internet Service Providers"}, {"latlon": "13.026640000000,77.571844000000", "docId": "080P1238673584N1M9N6", "name": "Lavanya Enterprises", "category": "Broadband Internet Service Providers"}, {"latlon": "12.998547990112,77.610053498535", "docId": "080P5931064", "name": "Global Vision", "category": "Broadband Internet Service Providers"}, {"latlon": "12.932689000000,77.542436000000", "docId": "080PXX80.XX80.130711100152.E2J6", "name": "V Care Connections", "category": "Broadband Internet Service Providers"}, {"latlon": "13.024210000000,77.594154000000", "docId": "080PXX80.XX80.140106181251.V4F8", "name": "Aradhya Enterprise", "category": "Broadband Internet Service Providers"}, {"latlon": "13.029933000000,77.562920000000", "docId": "080PXX80.XX80.091103115515.B4M6", "name": "IT Spectrum Technology Inc", "category": "Broadband Internet Service Providers"}, {"latlon": "12.966670800000,77.514123900000", "docId": "080PXX80.XX80.100426150449.G1S6", "name": "M M S Services", "category": "Broadband Internet Service Providers"}, {"latlon": "13.024210000000,77.594154000000", "docId": "080PF005215", "name": "Friends Netcoms", "category": "Broadband Internet Service Providers"}, {"latlon": "12.930246000000,77.566660000000", "docId": "080PXX80.XX80.120928100229.F8W9", "name": "Net Cafe", "category": "Broadband Internet Service Providers"}, {"latlon": "13.024210000000,77.594154000000", "docId": "080PXX80.XX80.130625150318.J6S3", "name": "Acme Business Solutions", "category": "Broadband Internet Service Providers"}, {"latlon": "13.030095000000,77.574472000000", "docId": "080PXX80.XX80.110221142401.D9Q6", "name": "Telemates", "category": "Broadband Internet Service Providers"}, {"latlon": "13.024210000000,77.594154000000", "docId": "080PXX80.XX80.110319121123.T3N3", "name": "Shiv Technologies", "category": "Broadband Internet Service Providers"}, {"latlon": "12.996696000000,77.614117000000", "docId": "080PXX80.XX80.091027154546.U2V4", "name": "Sanjay Enterprises", "category": "Broadband Internet Service Providers"}, {"latlon": "12.924496000000,77.563765000000", "docId": "080P153931", "name": "Vasundhara Interiours & Services", "category": "Broadband Internet Service Providers"}, {"latlon": "12.943072000000,77.609255000000", "docId": "080PXX80.XX80.091006120216.C5A6", "name": "Weaves India", "category": "Broadband Internet Service Providers"}, {"latlon": "12.928398000000,77.574006000000", "docId": "080PXX80.XX80.110122100919.H9G4", "name": "Navkam Corporation", "category": "Broadband Internet Service Providers"}, {"latlon": "12.995724000000,77.613427000000", "docId": "080PXX80.XX80.100428154756.D7V6", "name": "A M Enterprises", "category": "Broadband Internet Service Providers"}, {"latlon": "12.932689000000,77.542436000000", "docId": "080PXX80.XX80.110608151412.P4B3", "name": "M Tel Communication", "category": "Broadband Internet Service Providers"}, {"latlon": "13.024210000000,77.594154000000", "docId": "080PXX80.XX80.120124114541.N8D4", "name": "Nanda Gopal M K", "category": "Broadband Internet Service Providers"}, {"latlon": "12.932187000000,77.565941000000", "docId": "080PYE01415", "name": "Pride Marketing", "category": "Broadband Internet Service Providers"}, {"latlon": "12.997052000000,77.613469000000", "docId": "080PXX80.XX80.110728123309.I4Q8", "name": "Net4u Marketing", "category": "Broadband Internet Service Providers"}, {"latlon": "13.019648000000,77.540184000000", "docId": "080P148714", "name": "Amruth Cyber Zone", "category": "Broadband Internet Service Providers"}, {"latlon": "13.024210000000,77.594154000000", "docId": "080PXX80.XX80.121105123923.C8A1", "name": "Chethan", "category": "Broadband Internet Service Providers"}, {"latlon": "12.929977000000,77.584392000000", "docId": "080PXX80.XX80.090629182631.G5R9", "name": "Pride Marketing", "category": "Broadband Internet Service Providers"}, {"latlon": "12.996359000000,77.616924000000", "docId": "080PXX80.XX80.100211134651.I2K8", "name": "Fortune Enterprises", "category": "Broadband Internet Service Providers"}, {"latlon": "12.943072000000,77.609255000000", "docId": "080P1226920550N3Q9B5", "name": "Weaves India", "category": "Broadband Internet Service Providers"}, {"latlon": "13.024210000000,77.594154000000", "docId": "080PXX80.XX80.110928214303.L5U6", "name": "Shiv Technologies", "category": "Broadband Internet Service Providers"}, {"latlon": "12.973885000000,77.615714000000", "docId": "080PF014958", "name": "Swift Mail Communication Ltd", "category": "Broadband Internet Service Providers"}, {"latlon": "12.973885000000,77.615714000000", "docId": "080PK012679", "name": "Ravi Chandran K", "category": "Broadband Internet Service Providers"}, {"latlon": "12.963440672667,77.614585521250", "docId": "080PXX80.XX80.100616143527.P3Y3", "name": "Rathan Innovations", "category": "Broadband Internet Service Providers"}, {"latlon": "13.023559555556,77.554214472222", "docId": "080PXX80.XX80.140704183133.F6B3", "name": "Jai Karnataka Cable and Dish Network", "category": "Broadband Internet Service Providers"}, {"latlon": "13.024293500000,77.542533900000", "docId": "080PS001857", "name": "Buyers Edge", "category": "Broadband Internet Service Providers"}, {"latlon": "13.032337000000,77.590770000000", "docId": "080PXX80.XX80.120116151712.L3U4", "name": "Bangalore Broadband Network Pvt Ltd", "category": "Broadband Internet Service Providers"}, {"latlon": "12.933423000000,77.612759100000", "docId": "080P5904625", "name": "Bharti Airtel Ltd", "category": "Broadband Internet Service Providers"}, {"latlon": "12.981749000000,77.624094790900", "docId": "080PS000835", "name": "Softcell Technologies Ltd", "category": "Broadband Internet Service Providers"}, {"latlon": "13.032457000000,77.559219000000", "docId": "080PXX80.XX80.101111151019.A3P8", "name": "D Vois Broadband PVT LTD", "category": "Broadband Internet Service Providers"}, {"latlon": "13.034333000000,77.561750000000", "docId": "080PF014868", "name": "Sharp Cable Communications", "category": "Broadband Internet Service Providers"}, {"latlon": "13.027638000000,77.592217000000", "docId": "080PXX80.XX80.100906110649.Y1R9", "name": "Mujahid Pasha", "category": "Broadband Internet Service Providers"}], "Supermarkets": [{"latlon": "12.973806000000,77.549850000000", "docId": "080PXX80.XX80.131202103926.E5B2", "name": "Carrefour Wholesale Cash & Carry India Pvt Ltd", "category": "Supermarkets"}, {"latlon": "12.973457000000,77.550261000000", "docId": "080P1228736035V2S2B3", "name": "Reliance Fresh", "category": "Supermarkets"}, {"latlon": "12.973806000000,77.549850000000", "docId": "080PXX80.XX80.130318173359.Y4M8", "name": "Sri Shakthi Stores", "category": "Supermarkets"}, {"latlon": "12.979044000000,77.539157000000", "docId": "080P4312975", "name": "Smart Supermarket", "category": "Supermarkets"}, {"latlon": "13.020622000000,77.558547000000", "docId": "080PXX80.XX80.091217120648.V2F1", "name": "I Mart", "category": "Supermarkets"}, {"latlon": "12.994500000000,77.610333000000", "docId": "080PXX80.XX80.130716111224.G3L1", "name": "Madeena Supermarket", "category": "Supermarkets"}, {"latlon": "13.020000000000,77.555333000000", "docId": "080PF007656", "name": "Food Zone Super Market", "category": "Supermarkets"}, {"latlon": "13.023500000000,77.608833000000", "docId": "080PXX80.XX80.140328120522.J5I7", "name": "Ahmeds Retail", "category": "Supermarkets"}, {"latlon": "12.999700000000,77.622938000000", "docId": "080PXX80.XX80.110316104402.W1N7", "name": "Village Super Market", "category": "Supermarkets"}, {"latlon": "13.024293000000,77.631229000000", "docId": "080PXX80.XX80.130420153410.W1P7", "name": "R M Super Market", "category": "Supermarkets"}, {"latlon": "13.025814000000,77.627687000000", "docId": "080P5602998", "name": "Fine Fare Departmental Store", "category": "Supermarkets"}, {"latlon": "12.924731000000,77.638046000000", "docId": "080PXX80.XX80.130310141526.E1S2", "name": "Potato Supermarket", "category": "Supermarkets"}, {"latlon": "13.057311000000,77.624917000000", "docId": "080PXX80.XX80.140626115110.Q9N5", "name": "Day Bazar", "category": "Supermarkets"}, {"latlon": "13.093203000000,77.583603000000", "docId": "080PXX80.XX80.130708120542.E2E4", "name": "Srinav Retails Pvt Ltd", "category": "Supermarkets"}, {"latlon": "12.840503000000,77.651078000000", "docId": "080PXX80.XX80.121019145446.N6S2", "name": "Four Point Supermarket", "category": "Supermarkets"}, {"latlon": "12.983095900000,77.559617900000", "docId": "080PXX80.XX80.140602135905.G1N8", "name": "Total Superstore", "category": "Supermarkets"}, {"latlon": "12.975060000000,77.577209000000", "docId": "080P30070", "name": "Janatha Bazaar Departmental Stores", "category": "Supermarkets"}, {"latlon": "12.971229000000,77.571968000000", "docId": "080P5137514", "name": "Krishna Provision Stores", "category": "Supermarkets"}, {"latlon": "12.997172000000,77.573591000000", "docId": "080PXX80.XX80.100206112454.R8G3", "name": "Big Bazaar", "category": "Supermarkets"}, {"latlon": "12.974617064503,77.547345165676", "docId": "080PXX80.XX80.110506153553.J7P3", "name": "D Mart", "category": "Supermarkets"}, {"latlon": "12.991563000000,77.570728000000", "docId": "080PXX80.XX80.131026093508.Y1E3", "name": "Auchan Hypermarket", "category": "Supermarkets"}, {"latlon": "12.984413000000,77.554127000000", "docId": "080P5602023", "name": "Sweet Chariot", "category": "Supermarkets"}, {"latlon": "12.958254000000,77.553562000000", "docId": "080P5604660", "name": "Total Superstore", "category": "Supermarkets"}, {"latlon": "12.984439000000,77.554072000000", "docId": "080P4302934", "name": "More For You", "category": "Supermarkets"}, {"latlon": "12.991563000000,77.570728000000", "docId": "080PXX80.XX80.100313104908.A3N1", "name": "Achuan Hypermarket", "category": "Supermarkets"}, {"latlon": "12.997640000000,77.570434000000", "docId": "080PXX80.XX80.110108161803.D5S6", "name": "M K Ahmed Supermarket", "category": "Supermarkets"}, {"latlon": "12.952012000000,77.577272000000", "docId": "080PXX80.XX80.120602131613.X9Z7", "name": "More For You", "category": "Supermarkets"}, {"latlon": "12.995685000000,77.560209000000", "docId": "080P4313104", "name": "Heritage Fresh", "category": "Supermarkets"}, {"latlon": "12.997857000000,77.552814000000", "docId": "080P5606680", "name": "Heritage Fresh", "category": "Supermarkets"}, {"latlon": "12.952948000000,77.566952000000", "docId": "080PXX80.XX80.120602132321.L5U6", "name": "More Megastore", "category": "Supermarkets"}, {"latlon": "12.987500000000,77.553833000000", "docId": "080PXX80.XX80.131213113334.L7Q9", "name": "M K Bushra Super Market", "category": "Supermarkets"}, {"latlon": "12.981122000000,77.553933000000", "docId": "080PXX80.XX80.100503175420.B4L4", "name": "KBS Fairprice Supermarket", "category": "Supermarkets"}, {"latlon": "12.959159000000,77.565684000000", "docId": "080P1236079069X5T8S9", "name": "Foodworld", "category": "Supermarkets"}, {"latlon": "12.985162000000,77.554062000000", "docId": "080PXX80.XX80.121008153256.T9B2", "name": "The Big Market", "category": "Supermarkets"}, {"latlon": "12.999333000000,77.567674000000", "docId": "080P1223443797R3I9W4", "name": "Safal Daily Fresh", "category": "Supermarkets"}, {"latlon": "12.999644000000,77.559614000000", "docId": "080PXX80.XX80.121204105137.R9A1", "name": "More For You", "category": "Supermarkets"}, {"latlon": "12.999049000000,77.552192000000", "docId": "080PXX80.XX80.110630155102.Y3X6", "name": "Shoba Super Market", "category": "Supermarkets"}, {"latlon": "12.955847200000,77.565882700000", "docId": "080PXX80.XX80.140228152557.Q5Y5", "name": "Food World Supermarket", "category": "Supermarkets"}, {"latlon": "12.981318200000,77.595132000000", "docId": "080PXX80.XX80.130819133403.B4V1", "name": "The Bombay Store", "category": "Supermarkets"}, {"latlon": "12.993620000000,77.577252000000", "docId": "080PXX80.XX80.110623132510.T3M6", "name": "More For You", "category": "Supermarkets"}, {"latlon": "12.994162000000,77.562928000000", "docId": "080PXX80.XX80.100313171248.W1K4", "name": "KBS Fairprice Supermarket", "category": "Supermarkets"}, {"latlon": "12.965255000000,77.579466000000", "docId": "080PXX80.XX80.111031144442.I5L5", "name": "Maya Fancy Store", "category": "Supermarkets"}, {"latlon": "12.981318200000,77.595132000000", "docId": "080PXX80.XX80.130819172612.W9W3", "name": "Citi Supermart", "category": "Supermarkets"}, {"latlon": "13.002222222222,77.571111111111", "docId": "080P4311828", "name": "Shee Subramanya Traders", "category": "Supermarkets"}, {"latlon": "12.979167000000,77.553333000000", "docId": "080PXX80.XX80.121010152133.V2C1", "name": "Lakshmi traders", "category": "Supermarkets"}, {"latlon": "12.990721400000,77.554469000000", "docId": "080P4311830", "name": "S V Traders", "category": "Supermarkets"}, {"latlon": "12.994459000000,77.579655000000", "docId": "080P1301540", "name": "Mini Super Market", "category": "Supermarkets"}, {"latlon": "12.986619000000,77.555083000000", "docId": "080P4311832", "name": "Vinayaka Traders", "category": "Supermarkets"}, {"latlon": "12.983200000000,77.591599000000", "docId": "080PXX80.XX80.111031144016.M8J3", "name": "Sri Balaji Collection", "category": "Supermarkets"}, {"latlon": "12.991803000000,77.588796000000", "docId": "080P5981435", "name": "Reliance Retail Ltd", "category": "Supermarkets"}, {"latlon": "12.981318200000,77.595132000000", "docId": "080PXX80.XX80.130819144218.L8P4", "name": "Adishwar I Ltd", "category": "Supermarkets"}, {"latlon": "12.981318200000,77.595132000000", "docId": "080PXX80.XX80.130819162418.G4D6", "name": "Sri Vidura Departmental Stores", "category": "Supermarkets"}, {"latlon": "12.981318200000,77.595132000000", "docId": "080PXX80.XX80.130819161404.P3U9", "name": "Sree Balaji Pooja Bhandar", "category": "Supermarkets"}, {"latlon": "12.988658000000,77.556003000000", "docId": "080P4311831", "name": "Venkana Buy & Save", "category": "Supermarkets"}, {"latlon": "13.000158000000,77.567102000000", "docId": "080P4311829", "name": "Sln Stores", "category": "Supermarkets"}, {"latlon": "12.993712000000,77.571442000000", "docId": "080P5155462", "name": "Farm Line Super Markets", "category": "Supermarkets"}, {"latlon": "12.994459000000,77.579655000000", "docId": "080P4311554", "name": "Ckm Mini Supermarket", "category": "Supermarkets"}, {"latlon": "12.991803000000,77.588796000000", "docId": "080P5973234", "name": "Janapriya", "category": "Supermarkets"}, {"latlon": "12.956921000000,77.550424000000", "docId": "080P5165110", "name": "New Darshana Stores", "category": "Supermarkets"}, {"latlon": "12.984089000000,77.554182000000", "docId": "080P46511", "name": "Saraswathi Provision Stores", "category": "Supermarkets"}, {"latlon": "12.988671000000,77.557822000000", "docId": "080P4311833", "name": "Sri Kodandarama Traders", "category": "Supermarkets"}, {"latlon": "12.981318200000,77.595132000000", "docId": "080PXX80.XX80.130819132559.H9K6", "name": "Srinivasa Departmentals", "category": "Supermarkets"}, {"latlon": "12.981318200000,77.595132000000", "docId": "080PXX80.XX80.130819132906.N3G5", "name": "Srivinayaka Departmental Strs", "category": "Supermarkets"}, {"latlon": "12.981318200000,77.595132000000", "docId": "080PXX80.XX80.130819133050.W5T5", "name": "Sujatha Departmental Stores", "category": "Supermarkets"}, {"latlon": "12.981318200000,77.595132000000", "docId": "080PXX80.XX80.130819133240.Y8H2", "name": "Thavakkal Traders", "category": "Supermarkets"}, {"latlon": "12.981318200000,77.595132000000", "docId": "080PXX80.XX80.130819143413.D7P7", "name": "Umesh Stores", "category": "Supermarkets"}, {"latlon": "12.981318200000,77.595132000000", "docId": "080PXX80.XX80.130819143719.M4A4", "name": "Vinayaka General Stores", "category": "Supermarkets"}, {"latlon": "12.981318200000,77.595132000000", "docId": "080PXX80.XX80.130819144054.Q7I8", "name": "Adbunik Departmental Stores", "category": "Supermarkets"}, {"latlon": "12.981318200000,77.595132000000", "docId": "080PXX80.XX80.130819144429.L4J9", "name": "Gayathri Fancy Stores", "category": "Supermarkets"}, {"latlon": "12.981318200000,77.595132000000", "docId": "080PXX80.XX80.130819144747.G7E7", "name": "Haseena Stores", "category": "Supermarkets"}, {"latlon": "12.981318200000,77.595132000000", "docId": "080PXX80.XX80.130819144929.Q4E2", "name": "JAI Departmental Stores", "category": "Supermarkets"}, {"latlon": "12.981318200000,77.595132000000", "docId": "080PXX80.XX80.130819145132.S4A2", "name": "K L Fancy Center", "category": "Supermarkets"}, {"latlon": "12.981318200000,77.595132000000", "docId": "080PXX80.XX80.130819145242.V6R7", "name": "Kapsons General Stores", "category": "Supermarkets"}, {"latlon": "12.981318200000,77.595132000000", "docId": "080PXX80.XX80.130819145634.J6X6", "name": "Like Bazaar", "category": "Supermarkets"}, {"latlon": "12.981318200000,77.595132000000", "docId": "080PXX80.XX80.130819145902.G1Y8", "name": "M Deveki", "category": "Supermarkets"}, {"latlon": "12.981318200000,77.595132000000", "docId": "080PXX80.XX80.130819150020.G8F6", "name": "M G M Aahaar Seva", "category": "Supermarkets"}, {"latlon": "12.981318200000,77.595132000000", "docId": "080PXX80.XX80.130819150338.X9C3", "name": "M K Ahmed Sons", "category": "Supermarkets"}, {"latlon": "12.981318200000,77.595132000000", "docId": "080PXX80.XX80.130819150808.H3M7", "name": "Madhu Rice N Dall", "category": "Supermarkets"}, {"latlon": "12.981318200000,77.595132000000", "docId": "080PXX80.XX80.130819151918.Z6P2", "name": "Matsons Supermarket", "category": "Supermarkets"}, {"latlon": "12.981318200000,77.595132000000", "docId": "080PXX80.XX80.130819152031.D2E4", "name": "Maxima Super Market", "category": "Supermarkets"}, {"latlon": "12.981318200000,77.595132000000", "docId": "080PXX80.XX80.130819155732.R9L6", "name": "Padmanabha Stores", "category": "Supermarkets"}, {"latlon": "12.981318200000,77.595132000000", "docId": "080PXX80.XX80.130819155954.C4W4", "name": "Radheeda Departmental Stores", "category": "Supermarkets"}, {"latlon": "12.981318200000,77.595132000000", "docId": "080PXX80.XX80.130819160236.C7J7", "name": "Raj Laxmi Traders", "category": "Supermarkets"}, {"latlon": "12.981318200000,77.595132000000", "docId": "080PXX80.XX80.130819160349.Q3D9", "name": "Rajan Stores", "category": "Supermarkets"}, {"latlon": "12.981318200000,77.595132000000", "docId": "080PXX80.XX80.130819160539.G6C2", "name": "Rama Traders", "category": "Supermarkets"}, {"latlon": "12.981318200000,77.595132000000", "docId": "080PXX80.XX80.130819161250.X2Y5", "name": "Smitha Provision Stores", "category": "Supermarkets"}, {"latlon": "12.981318200000,77.595132000000", "docId": "080PXX80.XX80.130819161638.V4A3", "name": "Sree Rama Stores", "category": "Supermarkets"}, {"latlon": "12.981318200000,77.595132000000", "docId": "080PXX80.XX80.130819161742.E2M8", "name": "Sree Traders", "category": "Supermarkets"}, {"latlon": "12.981318200000,77.595132000000", "docId": "080PXX80.XX80.130819161953.M6C7", "name": "Sri Krishna Novelties", "category": "Supermarkets"}, {"latlon": "12.981318200000,77.595132000000", "docId": "080PXX80.XX80.130819162132.P8P8", "name": "Sri Maruthi Provision Stores", "category": "Supermarkets"}, {"latlon": "12.981318200000,77.595132000000", "docId": "080PXX80.XX80.130819162239.F5U4", "name": "Sri Nandini Departmental Stores", "category": "Supermarkets"}, {"latlon": "12.981318200000,77.595132000000", "docId": "080PXX80.XX80.130819162610.F9C1", "name": "A R Trading Company", "category": "Supermarkets"}, {"latlon": "12.981318200000,77.595132000000", "docId": "080PXX80.XX80.130819162730.U8E2", "name": "Amrutha Departmental Store", "category": "Supermarkets"}, {"latlon": "12.981318200000,77.595132000000", "docId": "080PXX80.XX80.130819162901.G5X9", "name": "Arun Traders", "category": "Supermarkets"}, {"latlon": "12.981318200000,77.595132000000", "docId": "080PXX80.XX80.130819163224.D2U7", "name": "B N Sreekantiah And Sons", "category": "Supermarkets"}, {"latlon": "12.981318200000,77.595132000000", "docId": "080PXX80.XX80.130819163325.A8B7", "name": "Balaji Provision Store", "category": "Supermarkets"}, {"latlon": "12.981318200000,77.595132000000", "docId": "080PXX80.XX80.130819172147.X6T1", "name": "Balaji Provision Stores", "category": "Supermarkets"}, {"latlon": "13.014002900000,77.554920700000", "docId": "080P4210380", "name": "Metro Cash & Carry India Pvt Ltd", "category": "Supermarkets"}, {"latlon": "13.012176508706,77.553444396156", "docId": "080PXX80.XX80.120223135737.P2J1", "name": "Big Bazaar", "category": "Supermarkets"}, {"latlon": "12.972639000000,77.606990000000", "docId": "080P18570", "name": "Nilgiris Supermarket", "category": "Supermarkets"}, {"latlon": "12.942267000000,77.573215000000", "docId": "080PXX80.XX80.121204162627.Q5Z6", "name": "More For You", "category": "Supermarkets"}, {"latlon": "13.010593100000,77.555039400000", "docId": "080PXX80.XX80.120719112749.E2A9", "name": "Star Bazaar", "category": "Supermarkets"}, {"latlon": "13.005310000000,77.578419000000", "docId": "080P4201020", "name": "Nilgiris Supermarket", "category": "Supermarkets"}, {"latlon": "13.015009000000,77.572550000000", "docId": "080PF003489", "name": "Namdharis Fresh", "category": "Supermarkets"}, {"latlon": "13.004883000000,77.572440000000", "docId": "080P4310479", "name": "Reliance Fresh", "category": "Supermarkets"}, {"latlon": "13.004628000000,77.565346000000", "docId": "080P4303245", "name": "More For You", "category": "Supermarkets"}, {"latlon": "13.009008000000,77.580076000000", "docId": "080P10054", "name": "Foodworld", "category": "Supermarkets"}, {"latlon": "12.945719000000,77.568009000000", "docId": "080P1229722021P5T7K4", "name": "Reliance Fresh", "category": "Supermarkets"}, {"latlon": "12.972667000000,77.539167000000", "docId": "080PF000529", "name": "M K Ahmed Supermarket", "category": "Supermarkets"}, {"latlon": "12.965355000000,77.530688000000", "docId": "080PXX80.XX80.101106133223.B9S2", "name": "Reliance Fresh", "category": "Supermarkets"}, {"latlon": "13.011164000000,77.546695000000", "docId": "080PXX80.XX80.131226101122.Z6L5", "name": "Nilgiris Supermarket", "category": "Supermarkets"}, {"latlon": "13.004075000000,77.578496000000", "docId": "080P1217676701A8X5D6", "name": "Nilgiris Supermarket", "category": "Supermarkets"}, {"latlon": "12.959914000000,77.536842000000", "docId": "080P4312740", "name": "More For You", "category": "Supermarkets"}, {"latlon": "12.992295000000,77.591638000000", "docId": "080PXX80.XX80.140228153927.N7I6", "name": "Home Needs Super Market", "category": "Supermarkets"}, {"latlon": "12.959742000000,77.602555000000", "docId": "080P4310810", "name": "Namdharis Fresh", "category": "Supermarkets"}, {"latlon": "12.961047000000,77.601637000000", "docId": "080P4202639", "name": "Foodworld", "category": "Supermarkets"}, {"latlon": "13.006806000000,77.546549000000", "docId": "080P4310525", "name": "Reliance Fresh", "category": "Supermarkets"}, {"latlon": "12.944471000000,77.572313000000", "docId": "080P37116", "name": "Foodworld", "category": "Supermarkets"}, {"latlon": "12.992009000000,77.534637000000", "docId": "080P4310482", "name": "Reliance Fresh", "category": "Supermarkets"}, {"latlon": "12.972886000000,77.607003000000", "docId": "080PXX80.XX80.100503111957.X9R3", "name": "Nilgiris Supermarket", "category": "Supermarkets"}, {"latlon": "12.941595513417,77.561621384778", "docId": "080PXX80.XX80.120212202341.W8F4", "name": "G K Traders", "category": "Supermarkets"}, {"latlon": "12.964287000000,77.604423000000", "docId": "080P5606497", "name": "Richmond Supermarket", "category": "Supermarkets"}, {"latlon": "12.999780000000,77.599383000000", "docId": "080P4303246", "name": "More For You", "category": "Supermarkets"}, {"latlon": "12.997475000000,77.540355000000", "docId": "080P5606679", "name": "Heritage Fresh", "category": "Supermarkets"}, {"latlon": "12.974169000000,77.600648000000", "docId": "080P5910696", "name": "More For You", "category": "Supermarkets"}, {"latlon": "12.993236000000,77.543508000000", "docId": "080PXX80.XX80.110621135208.F5J8", "name": "More For You", "category": "Supermarkets"}, {"latlon": "12.951978000000,77.595622000000", "docId": "080PXX80.XX80.110719122013.C9J9", "name": "More For You", "category": "Supermarkets"}, {"latlon": "12.973027000000,77.536685000000", "docId": "080PXX80.XX80.100313164622.T7M3", "name": "KBS Fairprice Supermarket", "category": "Supermarkets"}, {"latlon": "13.008237000000,77.564721000000", "docId": "080PXX80.XX80.130914125248.S1F5", "name": "Reliance Fresh Ltd", "category": "Supermarkets"}, {"latlon": "13.011164000000,77.546695000000", "docId": "080PXX80.XX80.110621181602.P9T7", "name": "More For You", "category": "Supermarkets"}, {"latlon": "12.945184000000,77.577938000000", "docId": "080PXX80.XX80.100903141645.E7A9", "name": "Safal Daily Fresh", "category": "Supermarkets"}, {"latlon": "13.005491000000,77.578464000000", "docId": "080PXX80.XX80.091130171731.M5V4", "name": "Nilgiris Supermarket", "category": "Supermarkets"}, {"latlon": "12.991951000000,77.537078000000", "docId": "080PXX80.XX80.110722124907.U1I9", "name": "Daily Mart", "category": "Supermarkets"}, {"latlon": "12.980530000000,77.606541000000", "docId": "080P4313725", "name": "Spencers Supermarket", "category": "Supermarkets"}, {"latlon": "12.976183000000,77.531922000000", "docId": "080PXX80.XX80.120529232419.T5V2", "name": "Shoppers City", "category": "Supermarkets"}, {"latlon": "12.941388888889,77.557500000000", "docId": "080P3215706", "name": "Yemkay Supermarket", "category": "Supermarkets"}, {"latlon": "12.984172000000,77.600606000000", "docId": "080PXX80.XX80.100129103251.Y9L4", "name": "Golden Foods", "category": "Supermarkets"}, {"latlon": "12.951322000000,77.576438000000", "docId": "080PXX80.XX80.131007115250.J5M9", "name": "More Super Market", "category": "Supermarkets"}, {"latlon": "13.009113000000,77.563176000000", "docId": "080P5602009", "name": "In & Out Departmental Store", "category": "Supermarkets"}, {"latlon": "12.975317000000,77.599911000000", "docId": "080P4211903", "name": "Asha Super Market", "category": "Supermarkets"}, {"latlon": "12.942267000000,77.573215000000", "docId": "080PXX80.XX80.131117104503.F9Y6", "name": "Namma Angadi", "category": "Supermarkets"}, {"latlon": "12.961140000000,77.601625000000", "docId": "080P1236080475M5G5R6", "name": "Foodworld", "category": "Supermarkets"}, {"latlon": "13.003915000000,77.543092000000", "docId": "080PXX80.XX80.120103162334.B9T3", "name": "Smart Supermarket", "category": "Supermarkets"}, {"latlon": "12.959167000000,77.597833000000", "docId": "080PXX80.XX80.131212175306.J3G4", "name": "Seher Super Market", "category": "Supermarkets"}, {"latlon": "12.973027000000,77.536685000000", "docId": "080P5152002", "name": "Bhavani General Store", "category": "Supermarkets"}, {"latlon": "12.940531000000,77.571190000000", "docId": "080PXX80.XX80.130819172345.Q3Y2", "name": "Cash And Carry", "category": "Supermarkets"}, {"latlon": "12.981290000000,77.535637000000", "docId": "080P4311836", "name": "M K Ahmed Super Shoppe", "category": "Supermarkets"}, {"latlon": "12.996989000000,77.603427000000", "docId": "080P5137116", "name": "Family Super Market", "category": "Supermarkets"}, {"latlon": "12.993236000000,77.543508000000", "docId": "080PF000602", "name": "Yemkay Trading Co", "category": "Supermarkets"}, {"latlon": "12.980639000000,77.532147000000", "docId": "080PXX80.XX80.131123131753.I5T4", "name": "Hindustan Mega Shoppe", "category": "Supermarkets"}, {"latlon": "12.937833000000,77.567500000000", "docId": "080PXX80.XX80.101029083801.B9X7", "name": "Ess Nikis Buy And Save", "category": "Supermarkets"}, {"latlon": "12.957636833333,77.591003416667", "docId": "080PXX80.XX80.130206175017.Z1C1", "name": "Grand Mart Super Market", "category": "Supermarkets"}, {"latlon": "13.007500000000,77.548500000000", "docId": "080PXX80.XX80.130306143145.G6G7", "name": "Athulya Departmental store", "category": "Supermarkets"}, {"latlon": "12.980639000000,77.532147000000", "docId": "080P6200015", "name": "Heritage Fresh", "category": "Supermarkets"}, {"latlon": "12.982016052694,77.531671347333", "docId": "080P1301860", "name": "Safal Daily Fresh", "category": "Supermarkets"}, {"latlon": "13.011164000000,77.546695000000", "docId": "080PXX80.XX80.110623132155.S8X4", "name": "More For You", "category": "Supermarkets"}, {"latlon": "12.974382000000,77.600474000000", "docId": "080PXX80.XX80.111027135657.T6G4", "name": "More Store", "category": "Supermarkets"}, {"latlon": "12.943443000000,77.560319000000", "docId": "080PXX80.XX80.120531213809.I6N7", "name": "Reliance Fresh", "category": "Supermarkets"}, {"latlon": "12.985061000000,77.606013000000", "docId": "080PXX80.XX80.100313165148.T9P3", "name": "Kbs Fairprice Supermarket", "category": "Supermarkets"}, {"latlon": "12.942267000000,77.573215000000", "docId": "080P4311793", "name": "Food Point", "category": "Supermarkets"}, {"latlon": "12.980530000000,77.606541000000", "docId": "080P1301512", "name": "Roshan Super Market", "category": "Supermarkets"}, {"latlon": "12.982970000000,77.608183000000", "docId": "080P8002295", "name": "Shopping Market", "category": "Supermarkets"}, {"latlon": "12.972010000000,77.535553000000", "docId": "080PXX80.XX80.111026200606.Q1K7", "name": "Amrutha Departments Store", "category": "Supermarkets"}, {"latlon": "12.941390000000,77.553407000000", "docId": "080P4311796", "name": "Jain Food Kemp", "category": "Supermarkets"}, {"latlon": "12.966092000000,77.541130000000", "docId": "080PXX80.XX80.121008133446.S2E3", "name": "Happy super market", "category": "Supermarkets"}, {"latlon": "13.003000000000,77.596333000000", "docId": "080PXX80.XX80.131228175018.P4N1", "name": "MS Super Market", "category": "Supermarkets"}, {"latlon": "12.956995000000,77.596188000000", "docId": "080P4311810", "name": "Food Point", "category": "Supermarkets"}, {"latlon": "12.980530000000,77.606541000000", "docId": "080P5943532", "name": "Kris World Market", "category": "Supermarkets"}, {"latlon": "13.000500000000,77.536000000000", "docId": "080PXX80.XX80.110315092442.Z9V8", "name": "Day Mart Super Market", "category": "Supermarkets"}, {"latlon": "13.005200000000,77.577637000000", "docId": "080PXX80.XX80.101022202145.T3D5", "name": "Daily-Life", "category": "Supermarkets"}, {"latlon": "12.957460000000,77.545250000000", "docId": "080PXX80.XX80.111027120324.X6Y4", "name": "Sri Vinayaka Traders", "category": "Supermarkets"}, {"latlon": "12.955424000000,77.591756000000", "docId": "080P5134497", "name": "Bharath Real Estate", "category": "Supermarkets"}, {"latlon": "12.992009000000,77.534637000000", "docId": "080P5604171", "name": "Padma Super Stores Pvt Ltd", "category": "Supermarkets"}, {"latlon": "12.970058000000,77.534539000000", "docId": "080PXX80.XX80.111210135831.H4T6", "name": "Surya Super Market", "category": "Supermarkets"}, {"latlon": "12.989667000000,77.601833000000", "docId": "080PXX80.XX80.110408124455.X9Z9", "name": "Sherrif Pharma", "category": "Supermarkets"}, {"latlon": "12.997503716736,77.549262482910", "docId": "080P4308028", "name": "Subhiksha Trading Services Basaveshwaranagar", "category": "Supermarkets"}, {"latlon": "12.973027000000,77.536685000000", "docId": "080PF014977", "name": "Subhiksha Trading Services Vijaynagar II", "category": "Supermarkets"}, {"latlon": "12.973027000000,77.536685000000", "docId": "080PXX80.XX80.110209093955.L6M5", "name": "Saraswathi Super Market", "category": "Supermarkets"}, {"latlon": "12.970600000000,77.600243000000", "docId": "080PXX80.XX80.111026201603.V8D2", "name": "Ladlee Store", "category": "Supermarkets"}, {"latlon": "12.963722000000,77.538498000000", "docId": "080PXX80.XX80.100109095246.T8C8", "name": "GRS Group Supermarket", "category": "Supermarkets"}], "Salons": [{"latlon": "12.971961000000,77.560664000000", "docId": "080PXX80.XX80.120620195139.L3W4", "name": "Kimlian Ladies Beauty Salon", "category": "Salons"}, {"latlon": "12.972500000000,77.548500000000", "docId": "080PXX80.XX80.130221161037.Y5K9", "name": "Poona gents parlour", "category": "Salons"}, {"latlon": "12.973457000000,77.550261000000", "docId": "080PXX80.XX80.110226133900.N8L5", "name": "Freinds Hair Style", "category": "Salons"}, {"latlon": "12.984000000000,77.554000000000", "docId": "080PXX80.XX80.131019134518.W9C4", "name": "Smart N Care", "category": "Salons"}, {"latlon": "12.985667000000,77.542833000000", "docId": "080PXX80.XX80.110520144159.G4X1", "name": "Shans Beauty Salon and Training Institute", "category": "Salons"}, {"latlon": "13.006460000000,77.578741000000", "docId": "080PXX80.XX80.110613124814.C6S6", "name": "Lakme Salon", "category": "Salons"}, {"latlon": "12.943017000000,77.585320000000", "docId": "080PXX80.XX80.120529133859.Z9T7", "name": "Bodycraft Spa And Salon", "category": "Salons"}, {"latlon": "13.011164400000,77.580063300000", "docId": "080PXX80.XX80.131007112350.P4N9", "name": "Le Tranquille", "category": "Salons"}, {"latlon": "13.008353000000,77.566658000000", "docId": "080PXX80.XX80.121013145600.Y2Q7", "name": "D5n Unisex Salon And Spa", "category": "Salons"}, {"latlon": "12.973763000000,77.606828000000", "docId": "080PXX80.XX80.140807171003.N9V2", "name": "Swan&Beyonce Unisex Saloon", "category": "Salons"}, {"latlon": "13.005655833333,77.565139722222", "docId": "080PXX80.XX80.130307143942.M9H6", "name": "Naturals Unisex Salon And Spa", "category": "Salons"}, {"latlon": "12.985317000000,77.596375000000", "docId": "080PXX80.XX80.131104154731.U3T2", "name": "Aqua Family Salon And Spa", "category": "Salons"}, {"latlon": "12.999733000000,77.552467000000", "docId": "080PXX80.XX80.140818152508.V9A5", "name": "Nanditas Organic Beauty Boutique", "category": "Salons"}, {"latlon": "12.982008000000,77.608800000000", "docId": "080PXX80.XX80.140509073314.W3P9", "name": "De Stress Spa And Beauty Care", "category": "Salons"}, {"latlon": "12.993236000000,77.543508000000", "docId": "080PXX80.XX80.130927134639.R2Y3", "name": "Exigo Complete Wellness", "category": "Salons"}, {"latlon": "12.969500000000,77.536667000000", "docId": "080PXX80.XX80.130707195951.R4E5", "name": "Naturals Unisex Salon & Spa", "category": "Salons"}, {"latlon": "12.947500000000,77.571667000000", "docId": "080PXX80.XX80.140426115126.F3G6", "name": "Green Trends Unisex Hair And Style Salon", "category": "Salons"}, {"latlon": "13.001117000000,77.599450000000", "docId": "080PXX80.XX80.131212164620.E5G1", "name": "Lakme Salon", "category": "Salons"}, {"latlon": "12.944895000000,77.567872000000", "docId": "080PF004213", "name": "Sought Out Salon", "category": "Salons"}, {"latlon": "12.971525000000,77.598213000000", "docId": "080PXX80.XX80.120127112703.H2V8", "name": "Hakims Aalim Hair Beauty Tattoo", "category": "Salons"}, {"latlon": "12.974363000000,77.534063000000", "docId": "080PXX80.XX80.140416132046.F6J3", "name": "Samhita Salon & Spa", "category": "Salons"}, {"latlon": "12.988567000000,77.593795000000", "docId": "080PXX80.XX80.130207135155.D3W1", "name": "Naturals Lounge", "category": "Salons"}, {"latlon": "12.973410000000,77.607220000000", "docId": "080PXX80.XX80.100801114146.S4R2", "name": "Trim N Shape Men Saloon", "category": "Salons"}, {"latlon": "12.961500000000,77.530333000000", "docId": "080PXX80.XX80.121214175202.Q4H3", "name": "Green Trends Hair And Style Salon", "category": "Salons"}, {"latlon": "12.942283000000,77.585572000000", "docId": "080PXX80.XX80.140806152643.J3D2", "name": "Bodycraft", "category": "Salons"}, {"latlon": "12.988488000000,77.619513000000", "docId": "080PXX80.XX80.091029125410.A4G2", "name": "Bodycraft Spa And Salon", "category": "Salons"}, {"latlon": "12.997000000000,77.614167000000", "docId": "080PXX80.XX80.130926124937.W2Q9", "name": "Deborahs Frizzy Unisex Salon", "category": "Salons"}, {"latlon": "12.929083000000,77.591347000000", "docId": "080PXX80.XX80.131112110303.U9P1", "name": "Garuda Vriddhi Wellness Pvt Ltd", "category": "Salons"}, {"latlon": "12.960878000000,77.528267000000", "docId": "080PXX80.XX80.120310150650.L9H9", "name": "Miracle Touch", "category": "Salons"}, {"latlon": "13.024842000000,77.593612000000", "docId": "080PXX80.XX80.111116125828.T6P4", "name": "Lakme Salon", "category": "Salons"}, {"latlon": "12.934313000000,77.583862000000", "docId": "080PXX80.XX80.131118184336.Z2H3", "name": "Green Trends Hair And Style Salon", "category": "Salons"}, {"latlon": "12.996571000000,77.611821000000", "docId": "080PXX80.XX80.111116113128.P9A5", "name": "Maria Beauty Salon And Institute", "category": "Salons"}, {"latlon": "13.020196000000,77.592423000000", "docId": "080PXX80.XX80.140728152316.E5V7", "name": "Shine Saloon And Spa", "category": "Salons"}, {"latlon": "13.024950000000,77.592408000000", "docId": "080PXX80.XX80.100727164429.E6A2", "name": "Stilista Men And Women Salon", "category": "Salons"}, {"latlon": "12.934989000000,77.582141000000", "docId": "080PXX80.XX80.121224183011.B5L5", "name": "SHOBHAS BEAUTY PARLOUR", "category": "Salons"}, {"latlon": "12.974010000000,77.612357000000", "docId": "080PXX80.XX80.140902131956.X9A8", "name": "Hakims Aalim Hair Beauty And Tattos", "category": "Salons"}, {"latlon": "12.930737000000,77.582175000000", "docId": "080PXX80.XX80.130712123033.S5A2", "name": "Naturals Unisex Salon And Spa", "category": "Salons"}, {"latlon": "13.028000000000,77.573167000000", "docId": "080PXX80.XX80.100416132455.V5H8", "name": "Yash Hair & Beauty Salon", "category": "Salons"}, {"latlon": "13.027857250528,77.572923035833", "docId": "080PXX80.XX80.121115103633.Q2K4", "name": "Headlines Beauty And Health Clinic", "category": "Salons"}, {"latlon": "12.968140000000,77.523916000000", "docId": "080PXX80.XX80.110309132144.A8K4", "name": "Glam And Glitz Salon & Spa", "category": "Salons"}, {"latlon": "13.027816000000,77.567938000000", "docId": "080PXX80.XX80.140528144527.E1H9", "name": "Vibgyor Unisex Salon", "category": "Salons"}, {"latlon": "12.932689000000,77.542436000000", "docId": "080PXX80.XX80.130503121223.V6U1", "name": "Platinum Unisex Salon And Spa", "category": "Salons"}, {"latlon": "12.932987000000,77.584267000000", "docId": "080PXX80.XX80.130731154503.X4K6", "name": "Enrich Salon & Academy", "category": "Salons"}, {"latlon": "12.912627000000,77.587573000000", "docId": "080PXX80.XX80.140724135550.Q4J9", "name": "Touch Spa & Salons", "category": "Salons"}, {"latlon": "13.037858000000,77.566298000000", "docId": "080PXX80.XX80.110613121316.S3Q9", "name": "Pretty Woman", "category": "Salons"}, {"latlon": "13.039899000000,77.581092000000", "docId": "080PXX80.XX80.130921191347.M2R5", "name": "Impressions", "category": "Salons"}, {"latlon": "12.936772000000,77.620438000000", "docId": "080PXX80.XX80.130101143234.Q5I4", "name": "Green Trends Hair And Style Salon", "category": "Salons"}, {"latlon": "13.033133000000,77.569258000000", "docId": "080PXX80.XX80.140819130249.I8Q4", "name": "Lakme Salon", "category": "Salons"}, {"latlon": "12.934338000000,77.616555000000", "docId": "080PXX80.XX80.130628190001.R4J9", "name": "Stone Salon And Spa", "category": "Salons"}, {"latlon": "12.913603000000,77.585822000000", "docId": "080PXX80.XX80.131230112534.F2L3", "name": "The F Spa", "category": "Salons"}, {"latlon": "12.922950000000,77.560123000000", "docId": "080PXX80.XX80.121215101633.R2U2", "name": "Deep Breath Unisex Salon And Spa", "category": "Salons"}, {"latlon": "12.934505300000,77.613325700000", "docId": "080PXX80.XX80.120418171319.J2J8", "name": "Margarets Hair Dressing And Beauty Parlour", "category": "Salons"}, {"latlon": "13.014624000000,77.619318000000", "docId": "080PXX80.XX80.140912164454.P2T2", "name": "Hsb Beauty Point & Tranining Center", "category": "Salons"}, {"latlon": "13.032103000000,77.569930000000", "docId": "080PXX80.XX80.140823192101.K9V4", "name": "Abs Unisex Salon", "category": "Salons"}, {"latlon": "12.933663000000,77.619080000000", "docId": "080PXX80.XX80.140826130556.V4E5", "name": "Knight Unisex Salon", "category": "Salons"}, {"latlon": "13.019214000000,77.619645000000", "docId": "080PXX80.XX80.140201124833.L1E1", "name": "Ayeshu Ladies Beauty Parlour", "category": "Salons"}, {"latlon": "13.035289000000,77.601417000000", "docId": "080PXX80.XX80.121210105156.Y8J9", "name": "MK Gents parlor and beauty parlor", "category": "Salons"}, {"latlon": "12.935642000000,77.618788000000", "docId": "080PXX80.XX80.140304171831.M6Y6", "name": "Tenzin Stylist Beauty Saloon", "category": "Salons"}, {"latlon": "12.978058000000,77.635313000000", "docId": "080PXX80.XX80.120524135712.J9U4", "name": "Ozone Unisex Beauty Care And Hair Saloon", "category": "Salons"}, {"latlon": "12.937080000000,77.617867000000", "docId": "080PXX80.XX80.140514105425.E8P4", "name": "Anil Hair Style", "category": "Salons"}, {"latlon": "12.934455000000,77.616295000000", "docId": "080PXX80.XX80.130831103804.G4N8", "name": "Purple Strandz", "category": "Salons"}, {"latlon": "13.038167000000,77.574667000000", "docId": "080PXX80.XX80.131023152107.E8Y4", "name": "Glorial Beauty Spa", "category": "Salons"}, {"latlon": "12.969908000000,77.631097000000", "docId": "080PXX80.XX80.130726143837.W1N2", "name": "Sri Sai Mens Saloon", "category": "Salons"}, {"latlon": "13.038634300000,77.592487300000", "docId": "080PXX80.XX80.120821141201.S2L7", "name": "Passion Venustas", "category": "Salons"}, {"latlon": "12.925277777778,77.550833333333", "docId": "080PXX80.XX80.120917091545.X7U3", "name": "Naturals Indias No.1 Family Salon And Spa", "category": "Salons"}, {"latlon": "12.912627000000,77.587573000000", "docId": "080PXX80.XX80.130515174653.S6V8", "name": "The Ambient Turrent", "category": "Salons"}, {"latlon": "12.960220000000,77.513663000000", "docId": "080PXX80.XX80.140109165302.Y5W1", "name": "Divine Ladies Parlour", "category": "Salons"}, {"latlon": "12.932375000000,77.623637000000", "docId": "080PXX80.XX80.101215155200.D8D6", "name": "Charisma Spa Pvt Ltd", "category": "Salons"}, {"latlon": "12.936750000000,77.627228000000", "docId": "080PXX80.XX80.130921190829.S1A5", "name": "Impressions", "category": "Salons"}, {"latlon": "12.969494000000,77.643115000000", "docId": "080PXX80.XX80.140902145608.H9Z1", "name": "Impression Beauty Wellness & Slimming Centre", "category": "Salons"}, {"latlon": "12.964400000000,77.639887000000", "docId": "080PXX80.XX80.140626115347.J6M5", "name": "England Spa And Salon", "category": "Salons"}, {"latlon": "12.977377000000,77.638528000000", "docId": "080PXX80.XX80.140913175635.Z3L8", "name": "Spark Spa And Saloon", "category": "Salons"}, {"latlon": "12.978111000000,77.638707000000", "docId": "080P1228999660D3C6P2", "name": "Club Citrus Unisex Salon And Spa", "category": "Salons"}, {"latlon": "12.968470000000,77.641358000000", "docId": "080PXX80.XX80.120625153828.G9H5", "name": "Bodycraft Spa", "category": "Salons"}, {"latlon": "13.021961000000,77.637108000000", "docId": "080PXX80.XX80.140614122504.F1V6", "name": "Impress Cuts Family Salon", "category": "Salons"}, {"latlon": "12.979270000000,77.646912000000", "docId": "080PXX80.XX80.111204194104.A8T8", "name": "Aurah Spa And Salon", "category": "Salons"}, {"latlon": "13.019908000000,77.636872000000", "docId": "080PXX80.XX80.140303124635.I4Y9", "name": "Rebirth Unisex Beauty Salon", "category": "Salons"}, {"latlon": "12.928403000000,77.626481000000", "docId": "080PXX80.XX80.140716173106.C3X2", "name": "5 Fingers Salon And Spa", "category": "Salons"}, {"latlon": "12.959979000000,77.639671000000", "docId": "080PXX80.XX80.131005100610.B8P6", "name": "Ayurvedic Wellness Centre", "category": "Salons"}, {"latlon": "12.980112000000,77.639205000000", "docId": "080PXX80.XX80.140422121036.L9Y4", "name": "Shear Genius Beauty Salon", "category": "Salons"}, {"latlon": "12.977667000000,77.641833000000", "docId": "080PXX80.XX80.111207182513.F2P8", "name": "Akaasa  Spa Salons", "category": "Salons"}, {"latlon": "12.898598000000,77.558593000000", "docId": "080PXX80.XX80.140513112138.K2V3", "name": "Trans Studio Unisex Salon And Spa", "category": "Salons"}, {"latlon": "12.978437000000,77.641175000000", "docId": "080PXX80.XX80.140605131029.F7F4", "name": "Lakme Salon", "category": "Salons"}, {"latlon": "12.931957000000,77.624831000000", "docId": "080PXX80.XX80.140512212630.H9N4", "name": "Creating Aura", "category": "Salons"}, {"latlon": "12.922833000000,77.614350000000", "docId": "080PXX80.XX80.140731150242.E4F3", "name": "Purple Haze Unisex Beauty Lounge", "category": "Salons"}, {"latlon": "12.914138000000,77.613515000000", "docId": "080PXX80.XX80.140202164519.B3M9", "name": "RE-VIVE Fitness And Beauty Private Limited", "category": "Salons"}, {"latlon": "12.932375000000,77.623637000000", "docId": "080PXX80.XX80.111126165825.C5R9", "name": "Nanditas The Beauty Zone", "category": "Salons"}, {"latlon": "13.049525000000,77.597053000000", "docId": "080PXX80.XX80.140324112012.T2C6", "name": "Naturally Hair And Skin", "category": "Salons"}, {"latlon": "12.908993000000,77.603449000000", "docId": "080PXX80.XX80.090502102236.M6B2", "name": "Sumans Herbal Beauty Saloon", "category": "Salons"}, {"latlon": "12.980813000000,77.640883000000", "docId": "080PXX80.XX80.140715142052.T5Y1", "name": "Sparha Advance Wellness Studio", "category": "Salons"}, {"latlon": "12.925179000000,77.630557000000", "docId": "080PXX80.XX80.131110183014.A9W4", "name": "Velvete Lounge", "category": "Salons"}, {"latlon": "12.921045000000,77.520287000000", "docId": "080PXX80.XX80.140820101021.P8K9", "name": "Green Trends Unisex Hair And Style Salon", "category": "Salons"}, {"latlon": "13.005256000000,77.636046000000", "docId": "080PXX80.XX80.140505141126.Z6R6", "name": "Paradise Spa And Rejuvenation", "category": "Salons"}, {"latlon": "12.970163000000,77.638367000000", "docId": "080PXX80.XX80.140327141417.U3B1", "name": "La Tiara Spa", "category": "Salons"}, {"latlon": "12.962397000000,77.642025000000", "docId": "080PXX80.XX80.091016112050.N2X3", "name": "Fascinations Unisex Spa & Salon", "category": "Salons"}, {"latlon": "12.900564000000,77.588965000000", "docId": "080PXX80.XX80.140424085243.I8M2", "name": "Venus Curls And Curves", "category": "Salons"}, {"latlon": "12.933820000000,77.628997000000", "docId": "080PXX80.XX80.131106104958.S4F8", "name": "Gaigui Unisex Salon And Spa", "category": "Salons"}, {"latlon": "12.921500000000,77.620500000000", "docId": "080PXX80.XX80.140220134301.Z5B2", "name": "Naturals Family Salon And Spa", "category": "Salons"}, {"latlon": "13.026372000000,77.624413000000", "docId": "080PXX80.XX80.140903115651.D7W2", "name": "Aafreens Salon And Spa", "category": "Salons"}, {"latlon": "12.904725000000,77.562888000000", "docId": "080PXX80.XX80.140724171118.Z7G9", "name": "Monica Beauty Parlour", "category": "Salons"}, {"latlon": "12.973833000000,77.642167000000", "docId": "080PXX80.XX80.130321125838.V3T7", "name": "O2 Spa", "category": "Salons"}, {"latlon": "12.974464882806,77.641993747500", "docId": "080PXX80.XX80.121127140959.Q6S6", "name": "Lakme Salon", "category": "Salons"}, {"latlon": "13.005256000000,77.636046000000", "docId": "080PXX80.XX80.120707114206.E7Y8", "name": "Jawed Habib Hair And Beauty Spa", "category": "Salons"}, {"latlon": "13.025906000000,77.626870000000", "docId": "080PXX80.XX80.131228111842.N4R6", "name": "Head Healer Hair Studio", "category": "Salons"}, {"latlon": "13.017333000000,77.636167000000", "docId": "080PXX80.XX80.130812131744.W6L8", "name": "Hair Do Salon And Spa", "category": "Salons"}, {"latlon": "12.905807472222,77.585090611111", "docId": "080PXX80.XX80.130826160056.R3T4", "name": "Golden Couples Unisex Beauty Salon", "category": "Salons"}, {"latlon": "12.928500000000,77.513833000000", "docId": "080PXX80.XX80.111223184742.Y2N6", "name": "Fusion Unisex Beauty Salon And Spa", "category": "Salons"}, {"latlon": "12.925333000000,77.517500000000", "docId": "080PXX80.XX80.130121181156.L4W7", "name": "F-Kludge Unisex Salon", "category": "Salons"}, {"latlon": "12.912308000000,77.597947000000", "docId": "080PXX80.XX80.120921140157.B4X3", "name": "Aveda Oasis", "category": "Salons"}, {"latlon": "12.979007000000,77.637763000000", "docId": "080PXX80.XX80.110224102229.D1Q7", "name": "Lakme Salon", "category": "Salons"}, {"latlon": "12.925179000000,77.630557000000", "docId": "080PXX80.XX80.100427170839.X9U3", "name": "Lakme Salon", "category": "Salons"}, {"latlon": "12.914138000000,77.613515000000", "docId": "080PXX80.XX80.140628151430.K9E6", "name": "My Dreams", "category": "Salons"}, {"latlon": "12.971772000000,77.654953000000", "docId": "080PXX80.XX80.140609204434.F4J5", "name": "Paradise Spa And Salon", "category": "Salons"}, {"latlon": "13.014064000000,77.648650000000", "docId": "080PXX80.XX80.130729194700.G4C5", "name": "Colours Unisex Salon", "category": "Salons"}, {"latlon": "13.021328000000,77.641730000000", "docId": "080PXX80.XX80.120828132710.M6P6", "name": "Astraa Beauty Lounge", "category": "Salons"}, {"latlon": "13.022500000000,77.648667000000", "docId": "080PXX80.XX80.131223141146.Z3I8", "name": "Galaxy Beauty Saloon And Spa Loral Professional", "category": "Salons"}, {"latlon": "12.926370000000,77.632972000000", "docId": "080PXX80.XX80.140819175730.I6B4", "name": "Dziikou Spa And Saloon", "category": "Salons"}, {"latlon": "13.023961000000,77.637313000000", "docId": "080PXX80.XX80.100203145459.W2G1", "name": "Lakme Salon", "category": "Salons"}, {"latlon": "13.031953000000,77.636049000000", "docId": "080PXX80.XX80.140605142525.R3J5", "name": "Lakme Salon", "category": "Salons"}, {"latlon": "13.014525000000,77.642666000000", "docId": "080PXX80.XX80.110806131444.B5Z2", "name": "Relish Fitness And Beauty Spa", "category": "Salons"}, {"latlon": "13.004955000000,77.659196000000", "docId": "080PXX80.XX80.110129193434.L8F7", "name": "Miracle Touch Woman Salon And Spa", "category": "Salons"}, {"latlon": "13.029533000000,77.634147000000", "docId": "080PXX80.XX80.121021220317.P4E5", "name": "NATURALS UNISEX SALON & SPA (HENNUR)", "category": "Salons"}, {"latlon": "13.062370000000,77.592970000000", "docId": "080PXX80.XX80.110613130003.A9J1", "name": "Lakme Salon", "category": "Salons"}, {"latlon": "13.062961000000,77.592050000000", "docId": "080PXX80.XX80.130928135736.M2N1", "name": "Natural Unisex Salon and Spa", "category": "Salons"}, {"latlon": "13.008833000000,77.651500000000", "docId": "080PXX80.XX80.131005135920.U7L3", "name": "Studio Nine", "category": "Salons"}, {"latlon": "12.958892000000,77.649136000000", "docId": "080PXX80.XX80.110917122847.C7K5", "name": "White Mantra", "category": "Salons"}, {"latlon": "13.050858000000,77.621533000000", "docId": "080PXX80.XX80.140624171803.A8V9", "name": "Pinks N Bloos", "category": "Salons"}, {"latlon": "13.031000000000,77.635667000000", "docId": "080PXX80.XX80.120312114235.E8Q7", "name": "Cross Blade Family Salon And Spa", "category": "Salons"}, {"latlon": "12.891333000000,77.593983000000", "docId": "080PXX80.XX80.120321140119.H2I8", "name": "The Body Line", "category": "Salons"}, {"latlon": "12.959054000000,77.659418000000", "docId": "080PXX80.XX80.130227141818.G8Q4", "name": "D And M Home Salon Services", "category": "Salons"}, {"latlon": "13.019786000000,77.647500000000", "docId": "080P33090", "name": "Magic Mirror Unisex Spa And Salon", "category": "Salons"}, {"latlon": "13.004666666667,77.660166666667", "docId": "080PXX80.XX80.130505112632.Q2B8", "name": "Impress Unisex Salon", "category": "Salons"}, {"latlon": "13.022500000000,77.639667000000", "docId": "080PXX80.XX80.120621160554.R8W8", "name": "Elementz5 Holisitic Spa", "category": "Salons"}, {"latlon": "13.022108000000,77.637353000000", "docId": "080PXX80.XX80.140118091352.T5W6", "name": "Fusions Beauty Salons", "category": "Salons"}, {"latlon": "12.912013000000,77.638337000000", "docId": "080PXX80.XX80.120501184826.G9I9", "name": "Trimme", "category": "Salons"}, {"latlon": "12.893034000000,77.625842000000", "docId": "080PXX80.XX80.140513154818.X4R7", "name": "Lakme  Salon", "category": "Salons"}, {"latlon": "13.020111000000,77.656395000000", "docId": "080PXX80.XX80.130219191304.X4A7", "name": "Naturals Unisex Salon And Spa", "category": "Salons"}, {"latlon": "12.910749800000,77.641153300000", "docId": "080PXX80.XX80.130928131118.K7K6", "name": "Aha Unisex Salon And Spa", "category": "Salons"}, {"latlon": "13.056361000000,77.642305000000", "docId": "080PXX80.XX80.140308155703.T4T7", "name": "Green Trends Unisex Hair And Style Salon", "category": "Salons"}, {"latlon": "13.013394000000,77.661667000000", "docId": "080PXX80.XX80.140708182156.A5I9", "name": "Vanity Salon Slimming And Spa", "category": "Salons"}, {"latlon": "12.912000000000,77.647000000000", "docId": "080PXX80.XX80.110830164806.B6C4", "name": "Pixies Salon And Spa", "category": "Salons"}, {"latlon": "13.062142000000,77.633500000000", "docId": "080PXX80.XX80.140904112129.T2Z1", "name": "Naturals Unisex Salon", "category": "Salons"}, {"latlon": "13.024386000000,77.660780000000", "docId": "080PXX80.XX80.131223115806.W9L8", "name": "Glamazon The Salon", "category": "Salons"}, {"latlon": "13.014833000000,77.665667000000", "docId": "080PXX80.XX80.130321135249.Y6L4", "name": "Shine Line Unisex salon", "category": "Salons"}, {"latlon": "12.904500000000,77.645833000000", "docId": "080PXX80.XX80.121012115628.X4I3", "name": "Nethras Beauty Saloon", "category": "Salons"}, {"latlon": "12.910749800000,77.641153300000", "docId": "080PXX80.XX80.121217172405.L5P9", "name": "Urban Oasis", "category": "Salons"}, {"latlon": "12.875890400000,77.595749100000", "docId": "080PXX80.XX80.130731145542.V3B4", "name": "Enrich Salon & Academy", "category": "Salons"}, {"latlon": "12.972063000000,77.680420000000", "docId": "080PXX80.XX80.140327190203.Q6U3", "name": "Scissors And Style", "category": "Salons"}, {"latlon": "13.096453000000,77.583755000000", "docId": "080PXX80.XX80.130702161932.S5I4", "name": "Lakme Salon", "category": "Salons"}, {"latlon": "12.889972000000,77.647055000000", "docId": "080PXX80.XX80.140623143913.H3E7", "name": "Sana Impression", "category": "Salons"}, {"latlon": "12.963596900000,77.679809300000", "docId": "080PXX80.XX80.140412125451.M1L5", "name": "Fashion Quotient Unisex Saloon And Spa", "category": "Salons"}, {"latlon": "13.020989000000,77.681463000000", "docId": "080PXX80.XX80.140210153730.T6L6", "name": "Green Shower", "category": "Salons"}, {"latlon": "12.866568000000,77.591961000000", "docId": "080PXX80.XX80.130301142526.U8H6", "name": "Bronz Unisex Salon", "category": "Salons"}, {"latlon": "12.866568000000,77.591961000000", "docId": "080PXX80.XX80.120816151820.Z7T2", "name": "Lakme Salon", "category": "Salons"}, {"latlon": "12.927244527167,77.669822074611", "docId": "080PXX80.XX80.120807181828.T2M9", "name": "Diva Unisex Salon And Dr Betais Skin And Hair Clinic", "category": "Salons"}, {"latlon": "12.923233000000,77.669716000000", "docId": "080PXX80.XX80.121109125550.J4Y3", "name": "Naturals Family Salon And Spa", "category": "Salons"}, {"latlon": "13.098700000000,77.583572000000", "docId": "080PXX80.XX80.111112125130.T1I7", "name": "Trend Setters", "category": "Salons"}, {"latlon": "12.979962000000,77.694633000000", "docId": "080PXX80.XX80.130820094118.S6M5", "name": "Style Waves", "category": "Salons"}, {"latlon": "12.958928000000,77.701705000000", "docId": "080PXX80.XX80.140623115947.K1Y8", "name": "Hair Studio Unisex Beauty Salon", "category": "Salons"}, {"latlon": "13.099722222222,77.584444444444", "docId": "080PXX80.XX80.120717122622.C4W3", "name": "Naturals Family Salon And Spa", "category": "Salons"}, {"latlon": "12.951923000000,77.698777000000", "docId": "080PXX80.XX80.140728101910.L7J2", "name": "The Radiance Beauty And Health Care", "category": "Salons"}, {"latlon": "12.995433000000,77.696372000000", "docId": "080PXX80.XX80.140227135007.Y1E6", "name": "Play Salon", "category": "Salons"}, {"latlon": "12.912812000000,77.680175000000", "docId": "080PXX80.XX80.140909202459.N4U7", "name": "Lakme Salon", "category": "Salons"}, {"latlon": "13.102833000000,77.577000000000", "docId": "080PXX80.XX80.130610143034.Y5L5", "name": "Chens Hair And Beauty Salon", "category": "Salons"}, {"latlon": "13.100167000000,77.577500000000", "docId": "080PXX80.XX80.120803233901.H7P3", "name": "Step Up", "category": "Salons"}, {"latlon": "12.960967785649,77.716742952515", "docId": "080PXX80.XX80.091120114821.B4G6", "name": "Naturals Unisex Salon And Spa", "category": "Salons"}, {"latlon": "12.956067000000,77.710938000000", "docId": "080PXX80.XX80.140326103859.Z8P8", "name": "Aaryans Spa And Salon For Men And Women", "category": "Salons"}, {"latlon": "12.956164000000,77.711346000000", "docId": "080PCLR20090107IRO5341651984", "name": "Aroma Home Spa", "category": "Salons"}, {"latlon": "12.956500000000,77.710000000000", "docId": "080PXX80.XX80.140717175346.J8N8", "name": "Tallado Signature Spa And Saloon", "category": "Salons"}, {"latlon": "13.018467000000,77.705995000000", "docId": "080PXX80.XX80.130130131736.Z1H9", "name": "THE MUSE", "category": "Salons"}, {"latlon": "12.848143000000,77.664045000000", "docId": "080PXX80.XX80.131213132239.X3G8", "name": "Green Trends", "category": "Salons"}, {"latlon": "12.955672000000,77.721405000000", "docId": "080PXX80.XX80.130531153118.Y2Z9", "name": "Allure Academy And Salon", "category": "Salons"}, {"latlon": "12.955767000000,77.718658000000", "docId": "080PXX80.XX80.130523133643.C7R7", "name": "Lakme  Salon", "category": "Salons"}, {"latlon": "12.956613000000,77.742622000000", "docId": "080PXX80.XX80.140621122511.U6B6", "name": "The Royal Spa And Salon", "category": "Salons"}, {"latlon": "12.956608000000,77.742583000000", "docId": "080PXX80.XX80.140621185504.W9W2", "name": "Naturals", "category": "Salons"}, {"latlon": "12.979086000000,77.751848000000", "docId": "080PXX80.XX80.101009121704.A7N8", "name": "Fruit Salon & Spa", "category": "Salons"}, {"latlon": "12.968700000000,77.749533000000", "docId": "080PXX80.XX80.140817140022.L7H3", "name": "Renchin Beauty Touch Unisex Salon And Spa", "category": "Salons"}, {"latlon": "12.976578000000,77.750947000000", "docId": "080PXX80.XX80.140723162235.U4F2", "name": "Inventive Enrich", "category": "Salons"}, {"latlon": "12.971095000000,77.749138000000", "docId": "080PXX80.XX80.140206170218.G6T9", "name": "Green Trends Unisex Beauty Salon", "category": "Salons"}, {"latlon": "12.978138000000,77.575378000000", "docId": "080PXX80.XX80.131111164110.Q4X9", "name": "The cellar top hair dresser", "category": "Salons"}], "Pharmaceuticals": [{"latlon": "12.969880000000,77.557312000000", "docId": "080PXX80.XX80.110725175222.X7T9", "name": "My Associates", "category": "Pharmaceuticals"}, {"latlon": "12.973806000000,77.549850000000", "docId": "080PXX80.XX80.101003193539.M9Z2", "name": "Hemanth Medicals", "category": "Pharmaceuticals"}, {"latlon": "12.968055555556,77.575555555556", "docId": "080P5144244", "name": "Satya Drug House", "category": "Pharmaceuticals"}, {"latlon": "12.957041000000,77.564914000000", "docId": "080PXX80.XX80.140729234745.W4H3", "name": "Plasma Gen", "category": "Pharmaceuticals"}, {"latlon": "12.958500861111,77.562217694444", "docId": "080PXX80.XX80.100622102821.Z3G8", "name": "Progressive Rx Pharma Pvt Ltd", "category": "Pharmaceuticals"}, {"latlon": "12.961679000000,77.583955000000", "docId": "080PXXXX.XXXX.100827115705.B8N3", "name": "Impulse Pharmaceuticals", "category": "Pharmaceuticals"}, {"latlon": "12.955847200000,77.565882700000", "docId": "080PXX80.XX80.140501211720.P2K2", "name": "Idv Pharmaceuticals", "category": "Pharmaceuticals"}, {"latlon": "12.955847200000,77.565882700000", "docId": "080PXX80.XX80.140705132007.M9N1", "name": "Genbios Pvt Ltd", "category": "Pharmaceuticals"}, {"latlon": "12.955847200000,77.565882700000", "docId": "080PXX80.XX80.140705152907.R8K3", "name": "Vesper Pharmaceuticals ( Vesper Group )", "category": "Pharmaceuticals"}, {"latlon": "12.981318200000,77.595132000000", "docId": "080PXX80.XX80.130313194828.F2H9", "name": "V-Trust Pharma", "category": "Pharmaceuticals"}, {"latlon": "12.981318200000,77.595132000000", "docId": "080PXX80.XX80.140712125846.S6K4", "name": "Duff Pharmaceuticals", "category": "Pharmaceuticals"}, {"latlon": "12.981318200000,77.595132000000", "docId": "080PXX80.XX80.140730144900.Z7N6", "name": "Growell Pharmaceuticals", "category": "Pharmaceuticals"}, {"latlon": "12.956969000000,77.549105000000", "docId": "080P45289", "name": "Ranbaxy Laboratories Ltd", "category": "Pharmaceuticals"}, {"latlon": "12.973420000000,77.603854000000", "docId": "080PXX80.XX80.100923172148.V7B6", "name": "Novartis Healthcare Pvt. Ltd", "category": "Pharmaceuticals"}, {"latlon": "12.948667000000,77.571500000000", "docId": "080P5976162", "name": "Minova Life Sciences Pvt Ltd", "category": "Pharmaceuticals"}, {"latlon": "12.957460000000,77.545250000000", "docId": "080PXX80.XX80.110726145152.Z8F7", "name": "Glaxo Smithkline", "category": "Pharmaceuticals"}, {"latlon": "12.945400000000,77.577599000000", "docId": "080PXX80.XX80.110726150538.M7R1", "name": "Juggat Pharma", "category": "Pharmaceuticals"}, {"latlon": "12.944937628417,77.568258927583", "docId": "080PXX80.XX80.110725174957.D6Q8", "name": "Parimala Enterprises", "category": "Pharmaceuticals"}, {"latlon": "12.963170000000,77.539433000000", "docId": "080PAPP20080623IRO55812569", "name": "Lifespan Pharmaceuticals Pvt Ltd", "category": "Pharmaceuticals"}, {"latlon": "13.008350000000,77.561447000000", "docId": "080PXX80.XX80.110726155905.Y4W4", "name": "Remedia Sante", "category": "Pharmaceuticals"}, {"latlon": "12.949000000000,77.599667000000", "docId": "080PXX80.XX80.130314123135.L5M1", "name": "Life science pvt ltd.", "category": "Pharmaceuticals"}, {"latlon": "12.940167000000,77.572000000000", "docId": "080PXX80.XX80.110727165322.G8S9", "name": "Aurz Pharmaceutical PVT LTD", "category": "Pharmaceuticals"}, {"latlon": "12.945020000000,77.550079000000", "docId": "080PXX80.XX80.110726133237.E6J2", "name": "Arbutus Health Remedies", "category": "Pharmaceuticals"}, {"latlon": "12.948950000000,77.596033000000", "docId": "080PXX80.XX80.110726142231.G5L5", "name": "Genx Pharma LTD", "category": "Pharmaceuticals"}, {"latlon": "12.976167000000,77.526500000000", "docId": "080PXX80.XX80.100103135019.A8N6", "name": "Vasu Medicals & General Store", "category": "Pharmaceuticals"}, {"latlon": "13.008350000000,77.587303000000", "docId": "080PXX80.XX80.110725185540.C4Z8", "name": "Susheela Healthcare Devises", "category": "Pharmaceuticals"}, {"latlon": "12.988845000000,77.525699000000", "docId": "080PXX80.XX80.131226115822.I5I4", "name": "Icure Pharmaseuticals", "category": "Pharmaceuticals"}, {"latlon": "13.023500000000,77.560000000000", "docId": "080PXX80.XX80.130805170111.F6H7", "name": "Veerabhadraswamy pharmaceutical", "category": "Pharmaceuticals"}, {"latlon": "13.024682000000,77.556743000000", "docId": "080PXX80.XX80.100926165043.U8E5", "name": "SRI Venkateshwara Agencies", "category": "Pharmaceuticals"}, {"latlon": "12.919297000000,77.578539000000", "docId": "080PXX80.XX80.100729170239.H1Z4", "name": "Sanghamitra Pharma", "category": "Pharmaceuticals"}, {"latlon": "12.942204000000,77.525402000000", "docId": "080PXX80.XX80.140627144426.J2A2", "name": "Veeresh Chemicals &Pharmaceuticals Pvt Ltd", "category": "Pharmaceuticals"}, {"latlon": "12.975620000000,77.627242000000", "docId": "080PXX80.XX80.120929141512.P4Z4", "name": "Aspera Pharmaceuticals", "category": "Pharmaceuticals"}, {"latlon": "13.027840000000,77.620460000000", "docId": "080PXX80.XX80.100726140958.V4X9", "name": "A V Z Pharma", "category": "Pharmaceuticals"}, {"latlon": "12.918833000000,77.603955000000", "docId": "080PXX80.XX80.140205212457.Q6M9", "name": "Yathra Pharmaceuticals", "category": "Pharmaceuticals"}, {"latlon": "13.033492000000,77.513509000000", "docId": "080P3030832", "name": "Advinus Therapeutics Pvt Ltd", "category": "Pharmaceuticals"}, {"latlon": "12.991347000000,77.493622000000", "docId": "080PXX80.XX80.120428141059.V6S3", "name": "Aishwarya Marketings", "category": "Pharmaceuticals"}, {"latlon": "12.897235000000,77.598505000000", "docId": "080P5962840", "name": "Strides Arcolab Ltd (Corporate Office)", "category": "Pharmaceuticals"}, {"latlon": "13.058932000000,77.575897000000", "docId": "080PXX80.XX80.130622193018.D1E1", "name": "nPAA Publishing house", "category": "Pharmaceuticals"}, {"latlon": "13.062070000000,77.592877000000", "docId": "080PXX80.XX80.130622160030.R2N8", "name": "Publish Paper- IJTA NPAA", "category": "Pharmaceuticals"}, {"latlon": "12.960648500000,77.659091900000", "docId": "080PXX80.XX80.120225124724.Y1M5", "name": "Plus Pharmaceuticals", "category": "Pharmaceuticals"}, {"latlon": "13.098616000000,77.588741000000", "docId": "080PXXXX.XXXX.100818174858.U6L6", "name": "Iris Life Solutions Pvt Ltd", "category": "Pharmaceuticals"}, {"latlon": "13.100901000000,77.596754000000", "docId": "080PXX80.XX80.130923133635.M3H8", "name": "Genelon Institute of life science pvt Ltd", "category": "Pharmaceuticals"}, {"latlon": "13.010263333333,77.706368888889", "docId": "080PXX80.XX80.110728133848.E1M7", "name": "Raashi Pharma", "category": "Pharmaceuticals"}, {"latlon": "12.965755444444,77.717483500000", "docId": "080PXX80.XX80.121008094314.H9J8", "name": "Sri Lakshmi Medicals", "category": "Pharmaceuticals"}, {"latlon": "12.848143000000,77.664045000000", "docId": "080PXX80.XX80.121201124350.N6I4", "name": "Medicity Pharma and General Stores", "category": "Pharmaceuticals"}, {"latlon": "0.000000000000,0.000000000000", "docId": "080PAPP20090105IRO42220703", "name": "Shanth Biotechnics Ltd", "category": "Pharmaceuticals"}, {"latlon": "0.000000000000,0.000000000000", "docId": "080PAPP20080729IRO4829197", "name": "Herbal Life", "category": "Pharmaceuticals"}, {"latlon": "0.000000000000,0.000000000000", "docId": "080PAPP20080707IRO55719488", "name": "Sablifksa", "category": "Pharmaceuticals"}, {"latlon": "0.000000000000,0.000000000000", "docId": "080PAPP20081126IRO46923515", "name": "Stride", "category": "Pharmaceuticals"}, {"latlon": "0.000000000000,0.000000000000", "docId": "080PAPP20090103IRO56727289", "name": "Zain Pharmaceuticals", "category": "Pharmaceuticals"}, {"latlon": "18.948198000000,72.831027000000", "docId": "022PXX22.XX22.101120161620.W2T7", "name": "CSC Pharmaceuticals International", "category": "Pharmaceuticals"}], "Police": [{"latlon": "12.974600000000,77.551395000000", "docId": "080P300612", "name": "Police Station", "category": "Police"}, {"latlon": "12.973806000000,77.549850000000", "docId": "080PXX80.XX80.140103160121.Y8W1", "name": "Police Station", "category": "Police"}, {"latlon": "12.974564000000,77.574720000000", "docId": "080P300616", "name": "Police Station", "category": "Police"}, {"latlon": "12.990186000000,77.564731000000", "docId": "080P300634", "name": "Police Station", "category": "Police"}, {"latlon": "12.987999000000,77.574465000000", "docId": "080P300626", "name": "Police Station", "category": "Police"}, {"latlon": "12.969681000000,77.576136000000", "docId": "080P300579", "name": "Police Station", "category": "Police"}, {"latlon": "12.989002200000,77.565922700000", "docId": "080P300633", "name": "Police Station", "category": "Police"}, {"latlon": "12.966801000000,77.570111000000", "docId": "080P300605", "name": "Police Station", "category": "Police"}, {"latlon": "12.968216000000,77.570093000000", "docId": "080P3026414", "name": "Police Station", "category": "Police"}, {"latlon": "12.979160000000,77.568462000000", "docId": "080P3205228", "name": "Police Station", "category": "Police"}, {"latlon": "12.974115000000,77.578598000000", "docId": "080P1235090368L8Y1L5", "name": "KSRTC Outpost Police Station", "category": "Police"}, {"latlon": "12.984290000000,77.593812000000", "docId": "080P301165", "name": "Commissioner Of Police", "category": "Police"}, {"latlon": "12.981462100000,77.585494700000", "docId": "080P300845", "name": "Police Cyber", "category": "Police"}, {"latlon": "12.968244000000,77.588289000000", "docId": "080P2000286", "name": "Deputy Commissioner Of Police Central", "category": "Police"}, {"latlon": "12.990721400000,77.554469000000", "docId": "080P300619", "name": "Police Station", "category": "Police"}, {"latlon": "12.996669000000,77.569575000000", "docId": "080P300615", "name": "Police Station", "category": "Police"}, {"latlon": "12.984551000000,77.581820000000", "docId": "080P300592", "name": "Police Station", "category": "Police"}, {"latlon": "12.960230000000,77.572105000000", "docId": "080P300578", "name": "Police Station", "category": "Police"}, {"latlon": "12.984230000000,77.593613000000", "docId": "080P300581", "name": "Cubbon Park Police Station", "category": "Police"}, {"latlon": "12.981318200000,77.595132000000", "docId": "080P2000288", "name": "Deputy Commissioner Of Police North", "category": "Police"}, {"latlon": "13.002812000000,77.576179500000", "docId": "080P300646", "name": "Police Station", "category": "Police"}, {"latlon": "12.960369000000,77.577713000000", "docId": "080P300602", "name": "Police Station", "category": "Police"}, {"latlon": "12.981318200000,77.595132000000", "docId": "080P2000287", "name": "Deputy Commissioner Of Police East", "category": "Police"}, {"latlon": "12.966462000000,77.591509000000", "docId": "080P300625", "name": "Police Station", "category": "Police"}, {"latlon": "12.981318200000,77.595132000000", "docId": "080P2000289", "name": "Deputy Commissioner Of Police West", "category": "Police"}, {"latlon": "12.974115000000,77.578598000000", "docId": "080P1235089939Q8Q2X9", "name": "Police Station", "category": "Police"}, {"latlon": "12.960226000000,77.577893000000", "docId": "080P300641", "name": "Police Station", "category": "Police"}, {"latlon": "12.992295000000,77.591638000000", "docId": "080P3205227", "name": "Police Station", "category": "Police"}, {"latlon": "12.957845000000,77.563508800000", "docId": "080P3026415", "name": "Police Station", "category": "Police"}, {"latlon": "12.957083000000,77.581661000000", "docId": "080P300640", "name": "Police Station", "category": "Police"}, {"latlon": "12.984287000000,77.593630000000", "docId": "080P300642", "name": "Police Station", "category": "Police"}, {"latlon": "12.960236000000,77.572059000000", "docId": "080P4212598", "name": "Police Station", "category": "Police"}, {"latlon": "12.964146000000,77.580610000000", "docId": "080P300631", "name": "Police Station", "category": "Police"}, {"latlon": "12.952242000000,77.569950000000", "docId": "080P3220048", "name": "Police Station", "category": "Police"}, {"latlon": "12.970529000000,77.583458000000", "docId": "080PXX80.XX80.140103160633.T2I8", "name": "Police Station", "category": "Police"}, {"latlon": "12.975871000000,77.587110000000", "docId": "080P3026417", "name": "Police Station", "category": "Police"}, {"latlon": "12.952012000000,77.577272000000", "docId": "080P300644", "name": "Police Station", "category": "Police"}, {"latlon": "12.957083000000,77.581661000000", "docId": "080P300610", "name": "Police Station", "category": "Police"}, {"latlon": "12.979562000000,77.590683000000", "docId": "080PXX80.XX80.110120160807.M9C2", "name": "Inter State Police Wireless Station", "category": "Police"}, {"latlon": "12.955847200000,77.565882700000", "docId": "080PXX80.XX80.140103160336.G5G7", "name": "Police Station", "category": "Police"}, {"latlon": "12.963684000000,77.582193000000", "docId": "080P3026408", "name": "Police Station", "category": "Police"}, {"latlon": "12.962321000000,77.571865000000", "docId": "080P300636", "name": "Police Station", "category": "Police"}, {"latlon": "12.970058000000,77.534539000000", "docId": "080P300643", "name": "Police Station", "category": "Police"}, {"latlon": "12.987925000000,77.537500000000", "docId": "080P300572", "name": "Police Station", "category": "Police"}, {"latlon": "12.942267000000,77.573215000000", "docId": "080P300628", "name": "Police Station", "category": "Police"}, {"latlon": "13.015009000000,77.572550000000", "docId": "080P300658", "name": "Police Station", "category": "Police"}, {"latlon": "13.002990000000,77.547356000000", "docId": "080P300614", "name": "Police Station", "category": "Police"}, {"latlon": "12.988140000000,77.603417000000", "docId": "080P300629", "name": "Police Station", "category": "Police"}, {"latlon": "12.982008000000,77.608800000000", "docId": "080P300580", "name": "Police Station", "category": "Police"}, {"latlon": "12.969572000000,77.596703000000", "docId": "080P5917814", "name": "Deputy Commissioner Of Traffic Police East", "category": "Police"}, {"latlon": "12.949241000000,77.563235000000", "docId": "080P3026409", "name": "Police Station", "category": "Police"}, {"latlon": "12.942267000000,77.573215000000", "docId": "080PXX80.XX80.140103160948.H3D9", "name": "Police Station", "category": "Police"}, {"latlon": "13.005617000000,77.593385000000", "docId": "080PXX80.XX80.100917101708.M7Y2", "name": "Police Station", "category": "Police"}, {"latlon": "13.011164000000,77.546695000000", "docId": "080PXX80.XX80.140103155250.L6R5", "name": "Mahalakshmi Layout Police Station", "category": "Police"}, {"latlon": "12.982332000000,77.604663000000", "docId": "080P300574", "name": "Police Station", "category": "Police"}, {"latlon": "12.990962000000,77.600463000000", "docId": "080PXX80.XX80.140103161820.F5S9", "name": "Bowring Hospital Road Police Station", "category": "Police"}, {"latlon": "12.982405000000,77.597931000000", "docId": "080PXX80.XX80.110120111100.F4Q2", "name": "V. Ramaiah, Ksps", "category": "Police"}, {"latlon": "12.942267000000,77.573215000000", "docId": "080PXX80.XX80.100917095553.E2F1", "name": "ADDL I G&COMMR OF POLICE", "category": "Police"}, {"latlon": "12.971005000000,77.609739000000", "docId": "080P3026407", "name": "Police Station", "category": "Police"}, {"latlon": "13.024210000000,77.594154000000", "docId": "080P300622", "name": "Police Station", "category": "Police"}, {"latlon": "13.018209800000,77.558187200000", "docId": "080P300649", "name": "Police Station", "category": "Police"}, {"latlon": "12.928506849273,77.581393104733", "docId": "080P300597", "name": "Police Station", "category": "Police"}, {"latlon": "12.997052000000,77.613469000000", "docId": "080P300583", "name": "Police Station", "category": "Police"}, {"latlon": "12.958589000000,77.528617000000", "docId": "080P3026416", "name": "Police Station", "category": "Police"}, {"latlon": "12.936540000000,77.543162000000", "docId": "080P300586", "name": "Police Station", "category": "Police"}, {"latlon": "12.948854000000,77.598213000000", "docId": "080P300647", "name": "Police Station", "category": "Police"}, {"latlon": "12.942267000000,77.573215000000", "docId": "080P5602187", "name": "Womens Police Station", "category": "Police"}, {"latlon": "12.936620000000,77.559109000000", "docId": "080P300590", "name": "Police Station", "category": "Police"}, {"latlon": "13.008028300000,77.595384100000", "docId": "080P300600", "name": "Police Station", "category": "Police"}, {"latlon": "13.012398000000,77.536710000000", "docId": "080P5604045", "name": "Police Station", "category": "Police"}, {"latlon": "12.928501000000,77.581262000000", "docId": "080P300630", "name": "Police Station", "category": "Police"}, {"latlon": "12.928540000000,77.590507000000", "docId": "080P300638", "name": "Police Station", "category": "Police"}, {"latlon": "13.011833000000,77.607054000000", "docId": "080P300582", "name": "Police Station", "category": "Police"}, {"latlon": "12.929360000000,77.567837000000", "docId": "080P300637", "name": "Police Station", "category": "Police"}, {"latlon": "12.930200000000,77.560518000000", "docId": "080PXX80.XX80.110629172950.Y3F4", "name": "C K Achukattu Police Station", "category": "Police"}, {"latlon": "12.991307000000,77.612480000000", "docId": "080P300589", "name": "Police Station", "category": "Police"},